Ward,Suburb,Property_code,Park_Name,Node_ID,Node_Name,Item_ID,Item_Type,Item_Description,Latitude,Longitude,Easting,Northing,Equipment_ID
HAMILTON,HAMILTON,D3753,PARKSIDE CIRCUIT PARK,B-RE-0012-N001,BALANCE OF PARK,52791,BUBBLER/DRINKING FOUNTAIN,TAP & BUBBLER,-27.4443,153.088,508654,6964350,100124316
NORTHGATE,NORTHGATE,D0456,PLAISTED PLACE PARK,B-RE-0014-N003,PLAISTED PLACE PK SKATE FACILITY,121974,BUBBLER/DRINKING FOUNTAIN,BUBBLER,-27.3909,153.061,506018,6970270,200527064
MOOROOKA,MOOROOKA,D0541,TONKS STREET PARK,B-RE-0015-N003,BALANCE OF PARK,48798,BUBBLER/DRINKING FOUNTAIN,BUBBLER & 2 TAPS,-27.5399,153.019,501886,6953760,200488755
MARCHANT,GRANGE,D0498,LANHAM PARK,B-RE-0017-N002,LANHAM PK PICNIC AREA,23408,BUBBLER/DRINKING FOUNTAIN,BUBBLER & TAP,-27.4242,153.019,501845,6966580,200478522
MARCHANT,GRANGE,D0498,LANHAM PARK,B-RE-0017-N005,SELLHEIM ST PLAYGROUND,65979,BUBBLER/DRINKING FOUNTAIN,UNIQUE DRINKING FOUNTAIN,-27.4242,153.018,501816,6966580,200500170
MARCHANT,GRANGE,D0498,LANHAM PARK,B-RE-0017-N007,GRANGE THISTLE SOCCER FACILITY,168375,BUBBLER/DRINKING FOUNTAIN,BUBBLER,-27.4218,153.02,501933,6966850,200553115
MARCHANT,GRANGE,D0498,LANHAM PARK,B-RE-0017-N015,SELLHEIM ST PICNIC AREA,23409,BUBBLER/DRINKING FOUNTAIN,BUBBLER & TAP,-27.4247,153.018,501734,6966530,200478523
RUNCORN,RUNCORN,D0607,NATHAN ROAD PARK,B-RE-0018-N002,NATHAN RD DOG OFF LEASH AREA,29806,BUBBLER/DRINKING FOUNTAIN,BUBBLER & TAP,-27.5872,153.07,506920,6948520,200480500
THE GAP,RED HILL,D0192,WOOLCOCK PARK,B-RE-0020-N001,WOOLCOCK PK PLAYGROUND,28722,BUBBLER/DRINKING FOUNTAIN,BUBBLER - DISABLED ACCESS,-27.4494,152.999,499919,6963790,200480303
THE GAP,RED HILL,D0192,WOOLCOCK PARK,B-RE-0020-N005,BALANCE OF PARK,22924,BUBBLER/DRINKING FOUNTAIN,BUBBLER & 2 TAPS,-27.4497,152.999,499923,6963750,200478328
THE GAP,RED HILL,D0192,WOOLCOCK PARK,B-RE-0020-N005,BALANCE OF PARK,22925,BUBBLER/DRINKING FOUNTAIN,BUBBLER & 2 TAPS,-27.449,152.999,499916,6963830,200478329
THE GAP,RED HILL,D0192,WOOLCOCK PARK,B-RE-0020-N006,WOOLCOCK PK PICNIC AREA,36819,BUBBLER/DRINKING FOUNTAIN,DIABLED ACCESS BUBBLER,-27.4488,152.999,499895,6963850,200483664
TENNYSON,GRACEVILLE,D0009,GIRAWEEN PARK,B-RE-0021-N002,GIRAWEEN PK PLAYGROUND,174382,BUBBLER/DRINKING FOUNTAIN,BUBBLER & 2 TAPS,-27.5219,152.988,498816,6955750,200557240
RUNCORN,RUNCORN,D1208,GLENEFER STREET PARK,B-RE-0025-N001,BALANCE OF PARK,124174,BUBBLER/DRINKING FOUNTAIN,BUBBLER & TAP,-27.6004,153.069,506814,6947060,200528894
RUNCORN,RUNCORN,D1208,GLENEFER STREET PARK,B-RE-0025-N002,GLENEFER ST PK DOG OFF LEASH AREA,50733,BUBBLER/DRINKING FOUNTAIN,TAP & BUBBLER WITH DOG BOWL,-27.6009,153.07,506875,6947000,100117849
CALAMVALE,PARKINSON,D1195,BILLABONG PLACE PARK,B-RE-0026-N001,GRAGIN PLACE PLAYGROUND,32133,BUBBLER/DRINKING FOUNTAIN,BUBBLER & TAP,-27.4808,152.981,498135,6960310,200481236
CALAMVALE,PARKINSON,D1195,BILLABONG PLACE PARK,B-RE-0026-N001,GRAGIN PLACE PLAYGROUND,186281,BUBBLER/DRINKING FOUNTAIN,BUBBLER & TAP,-27.629,153.032,503156,6943900,200564596
CALAMVALE,PARKINSON,D1195,BILLABONG PLACE PARK,B-RE-0026-N002,AVONDALE CRES PLAYGROUND,186431,BUBBLER/DRINKING FOUNTAIN,BUBBLER & TAP,-27.6305,153.035,503404,6943730,200564722
TENNYSON,CORINDA,D0877,ARCHER PARADE PARK,B-RE-0030-N003,CORINDA HORSE & PONY CLUB FACILITY,185292,BUBBLER/DRINKING FOUNTAIN,TAP COMBINATION,-27.5489,152.992,499254,6952770,200563746
TENNYSON,CORINDA,D0877,ARCHER PARADE PARK,B-RE-0030-N003,CORINDA HORSE & PONY CLUB FACILITY,185300,BUBBLER/DRINKING FOUNTAIN,TAP COMBINATION,-27.5488,152.992,499215,6952780,200563750
TENNYSON,CORINDA,D0877,ARCHER PARADE PARK,B-RE-0030-N003,CORINDA HORSE & PONY CLUB FACILITY,185348,BUBBLER/DRINKING FOUNTAIN,TAP COMBINATION,-27.5488,152.992,499236,6952780,200563795
TENNYSON,CORINDA,D0877,ARCHER PARADE PARK,B-RE-0030-N003,CORINDA HORSE & PONY CLUB FACILITY,185361,BUBBLER/DRINKING FOUNTAIN,TAP COMBINATION,-27.5492,152.993,499261,6952740,200563806
TENNYSON,CORINDA,D0877,ARCHER PARADE PARK,B-RE-0030-N003,CORINDA HORSE & PONY CLUB FACILITY,185362,BUBBLER/DRINKING FOUNTAIN,TAP COMBINATION,-27.5492,152.993,499274,6952730,200563807
TENNYSON,CORINDA,D0877,ARCHER PARADE PARK,B-RE-0030-N003,CORINDA HORSE & PONY CLUB FACILITY,185363,BUBBLER/DRINKING FOUNTAIN,TAP COMBINATION,-27.5492,152.993,499287,6952730,200563808
TENNYSON,CORINDA,D0877,ARCHER PARADE PARK,B-RE-0030-N003,CORINDA HORSE & PONY CLUB FACILITY,185372,BUBBLER/DRINKING FOUNTAIN,TAP COMBINATION,-27.5489,152.992,499215,6952760,200563816
MARCHANT,CHERMSIDE,D0964,DEAD MAN'S GULLY PARK,B-RE-0036-N001,BALANCE OF PARK,151842,BUBBLER/DRINKING FOUNTAIN,BUBBLER & TAP,-27.3903,153.031,503035,6970330,200543944
MCDOWALL,EVERTON PARK,D0948,SOAMES STREET PARK,B-RE-0037-N002,HOLLOWAY DVE PICNIC AREA,148430,BUBBLER/DRINKING FOUNTAIN,BUBBLER & 2 TAPS,-27.3912,152.982,498235,6970240,200541856
DOBOY,MURARRIE,D2047,WYANDRA CRESCENT PARK,B-RE-0039-N002,WYANDRA CRESCENT (STOCKYARD PK) PLAYGROUND,101573,BUBBLER/DRINKING FOUNTAIN,BUBBLER & TAP,-27.4626,153.092,509100,6962320,200513296
DOBOY,WAKERLEY,D2050,MOSS ROAD (NO 42),B-RE-0041-N003,WATERVALE PDE DOG OFF LEASH AREA,196406,BUBBLER/DRINKING FOUNTAIN,BUBBLER & TAP WITH BOWL,-27.481,153.162,516047,6960280,100262924
DOBOY,WAKERLEY,D2042,GORDON CRESCENT PARK,B-RE-0046-N002,GORDON CRES PLAYGROUND,34997,BUBBLER/DRINKING FOUNTAIN,DRINKING FOUNTAIN,-27.4803,153.153,515124,6960360,100107287
JAMBOREE,RIVERHILLS,D2040,NEWCOMB PARK,B-RE-0047-N008,SUMNERS RD SKATE & BMX FACILITY,196205,BUBBLER/DRINKING FOUNTAIN,TAP & BUBBLER,-27.5625,152.9,490106,6951250,100252294
DOBOY,WAKERLEY,D2052,BEHAN CRESCENT PARK,B-RE-0048-N002,BEHAN CRES PLAYGROUND,187563,BUBBLER/DRINKING FOUNTAIN,TAP COMBINATION,-27.4811,153.155,515280,6960270,100108156
NORTHGATE,NUDGEE,D2054,ALEXANDER MACPHERSON PARK,B-RE-0049-N002,ALEXANDER MACPHERSON PK PLAYGROUND,89428,BUBBLER/DRINKING FOUNTAIN,BUBBLER & 2 TAPS,-27.3715,153.089,508752,6972410,200509114
FOREST LAKE,FOREST LAKE,D2035,JUBILEE AVENUE PARK,B-RE-0062-N001,JUBILEE AVE PICNIC AREA,42594,BUBBLER/DRINKING FOUNTAIN,BUBBLER & TAP,-27.6271,152.946,494702,6944110,200486671
JAMBOREE,RIVERHILLS,D2031,WOLSTON CREEK BUSHLAND RESERVE,B-RE-0066-N004,BALANCE OF PARK,41577,BUBBLER/DRINKING FOUNTAIN,BUBBLER & TAP,-27.5658,152.903,490404,6950890,200486195
JAMBOREE,RIVERHILLS,D2031,WOLSTON CREEK BUSHLAND RESERVE,B-RE-0066-N004,BALANCE OF PARK,45867,BUBBLER/DRINKING FOUNTAIN,BUBBLER & TAP,-27.5635,152.903,490416,6951140,200488262
MCDOWALL,BRIDGEMAN DOWNS,D2030,TRAVORTEN DRIVE PARK,B-RE-0067-N002,BALANCE OF PARK,37678,BUBBLER/DRINKING FOUNTAIN,DRINKING FOUNTAIN,-27.3336,153.005,500512,6976610,200484160
CALAMVALE,PARKINSON,D2028,TALISKER PLACE PARK,B-RE-0069-N004,TALISKER PLACE PICNIC AREA,37647,BUBBLER/DRINKING FOUNTAIN,BUBBLER & TAP,-27.6396,153.025,502464,6942720,200484143
THE GABBA,HIGHGATE HILL,D2103,BRYDON STREET PARK,B-RE-0080-N001,BRYDON ST PK FITNESS STATION,79679,BUBBLER/DRINKING FOUNTAIN,BUBBLER & 2 TAPS,-27.4886,153.016,501597,6959450,200504352
MCDOWALL,MCDOWALL,D2083,SUNSET PLACE PARK,B-RE-0093-N003,SUNSET PLACE PICNIC AREA,46771,BUBBLER/DRINKING FOUNTAIN,BUBBLER & 2 TAPS,-27.3815,152.984,498417,6971310,200488377
MACGREGOR,EIGHT MILE PLAINS,D2077,KAOHSIUNG PARK,B-RE-0098-N003,HIGHVALE ST PLAYGROUND,170718,BUBBLER/DRINKING FOUNTAIN,BUBBLER & 2 TAPS,-27.5834,153.08,507935,6948940,200554618
NORTHGATE,NUDGEE,D2150,REDWAY STREET PARK,B-RE-0108-N001,BALANCE OF PARK,89467,BUBBLER/DRINKING FOUNTAIN,BUBBLER,-27.3735,153.087,508578,6972200,200509150
CALAMVALE,PARKINSON,D2147,WATHEROO PLACE PARK,B-RE-0111-N001,WATHEROO PLACE PICNIC AREA,174184,BUBBLER/DRINKING FOUNTAIN,DISABLED ACCESS FOUNTAIN,-27.641,153.018,501804,6942560,200557067
FOREST LAKE,FOREST LAKE,D2015,ROXWELL STREET PARK,B-RE-0120-N001,PATON CRES PICNIC AREA,44382,BUBBLER/DRINKING FOUNTAIN,BUBBLER & TAP,-27.6242,152.946,494663,6944420,200487334
MACGREGOR,EIGHT MILE PLAINS,D1961,BUCKINGHAM PLACE PARK,B-RE-0122-N002,MANCHESTER ST PICNIC AREA,170725,BUBBLER/DRINKING FOUNTAIN,BUBBLER & TAP,-27.5751,153.097,509535,6949860,200554625
MORNINGSIDE,MORNINGSIDE,D1858,KERALGERIE PARK,B-RE-0127-N001,KERALGERIE PK DOG OFF LEASH AREA,30724,BUBBLER/DRINKING FOUNTAIN,BUBBLER 2 TAPS & DOG BOWL,-27.4738,153.08,507859,6961090,200480875
MORNINGSIDE,MORNINGSIDE,D1858,KERALGERIE PARK,B-RE-0127-N003,BALANCE OF PARK,42582,BUBBLER/DRINKING FOUNTAIN,BUBBLER & 2 TAPS,-27.4735,153.079,507823,6961110,200486667
MCDOWALL,CHERMSIDE WEST,D1854,HAMILTON ROAD QUARRY PARK,B-RE-0130-N001,HAMILTON RD QUARRY PK SPORTS FIELD,172543,BUBBLER/DRINKING FOUNTAIN,BUBBLER & 2 TAPS,-27.3803,153.004,500375,6971450,200555981
MCDOWALL,CHERMSIDE WEST,D1854,HAMILTON ROAD QUARRY PARK,B-RE-0130-N002,BALANCE OF PARK,30166,BUBBLER/DRINKING FOUNTAIN,BUBBLER & 2 TAPS,-27.3814,153.004,500431,6971320,200480631
BRACKEN RIDGE,BALD HILLS,D1956,CHRIS BRUNTON PARK,B-RE-0137-N002,CHRIS BRUNTON PK FITNESS EXCERCISE CIRCUIT,194791,BUBBLER/DRINKING FOUNTAIN,TAP & BUBBLER,-27.3161,153.016,501632,6978550,100250639
CENTRAL,NEW FARM,D1948,MERTHYR ROAD PARK,B-RE-0144-N001,BALANCE OF PARK,123464,BUBBLER/DRINKING FOUNTAIN,BUBBLER,-27.4653,153.053,505190,6962020,200528419
CENTRAL,TENERIFFE,D1946,CATALINA PARK,B-RE-0146-N002,MACQUARIE ST TERRACES,111785,BUBBLER/DRINKING FOUNTAIN,DRINKING FOUNTAIN & 2 TAPS,-27.4591,153.051,504997,6962720,100082854
CALAMVALE,DREWVALE,D1940,MUSCARI CRESCENT PARK,B-RE-0150-N001,BALANCE OF PARK,52818,BUBBLER/DRINKING FOUNTAIN,BUBBLER & 2 TAPS,-27.6408,153.046,504558,6942590,200489459
PULLENVALE,CHUWAR,D1939,MT CROSBY SPORTSGROUND,B-RE-0151-N004,MT CROSBY SPORTSGROUND PLAYGROUND PICNIC AREA,52079,BUBBLER/DRINKING FOUNTAIN,BUBBLER & TAP,-27.5393,152.796,479875,6953820,200489301
PULLENVALE,CHUWAR,D1939,MT CROSBY SPORTSGROUND,B-RE-0151-N005,BALANCE OF PARK,121158,BUBBLER/DRINKING FOUNTAIN,BUBBLER & 2 TAPS,-27.5401,152.796,479882,6953720,200526307
PULLENVALE,CHUWAR,D1939,MT CROSBY SPORTSGROUND,B-RE-0151-N005,BALANCE OF PARK,121205,BUBBLER/DRINKING FOUNTAIN,BUBBLER & TAP,-27.5394,152.796,479891,6953810,200526351
PULLENVALE,CHUWAR,D1939,MT CROSBY SPORTSGROUND,B-RE-0151-N008,MT CROSBY SPORTSGROUND PICNIC AREA,121171,BUBBLER/DRINKING FOUNTAIN,BUBBLER & 2 TAPS,-27.5405,152.796,479817,6953690,200526320
PULLENVALE,CHUWAR,D1939,MT CROSBY SPORTSGROUND,B-RE-0151-N009,MT CROSBY SPORTSGROUND DOG OFF LEASH AREA,100117691,BUBBLER/DRINKING FOUNTAIN,WATER TAP & BUBBLER,-27.5393,152.795,479758,6953810,100117691
PULLENVALE,CHUWAR,D1939,MT CROSBY SPORTSGROUND,B-RE-0151-N009,MT CROSBY SPORTSGROUND DOG OFF LEASH AREA,100117692,BUBBLER/DRINKING FOUNTAIN,WATER TAP & BUBBLER,-27.5391,152.795,479801,6953830,100117692
JAMBOREE,WESTLAKE,D1936,SEABROOK CIRCUIT PARK,B-RE-0154-N002,SEABROOK CIRCUIT PICNIC AREA,142552,BUBBLER/DRINKING FOUNTAIN,BUBBLER & 2 TAPS,-27.5505,152.915,491567,6952590,200538984
DOBOY,CANNON HILL,D1934,SOUTHGATE AVENUE PARK,B-RE-0155-N001,BALANCE OF PARK,188197,BUBBLER/DRINKING FOUNTAIN,BUBBLER & SINGLE TAP,-27.4658,153.091,508983,6961970,200566306
DOBOY,MURARRIE,D1931,CALLIOPE CIRCUIT PARK,B-RE-0158-N002,CENTRAL PARK PICNIC AREA,101443,BUBBLER/DRINKING FOUNTAIN,BUBBLER & TAP,-27.4638,153.095,509341,6962190,200513261
DOBOY,MURARRIE,D1930,EVERGREEN PLACE PARK,B-RE-0159-N002,ROSEWOOD PLACE DOG OFF LEASH AREA,196364,BUBBLER/DRINKING FOUNTAIN,BUBBLER & TAP WITH BOWL,-27.4651,153.093,509227,6962050,100262449
FOREST LAKE,FOREST LAKE,D2007,CASCADE DRIVE PARK (NO.20),B-RE-0169-N003,TENNIS FACILITY PICNIC AREA,44359,BUBBLER/DRINKING FOUNTAIN,BUBBLER & TAP,-27.629,152.965,496509,6943890,200487313
CALAMVALE,PARKINSON,D2005,DAINTREE DRIVE PARK (NO.65),B-RE-0170-N004,DAINTREE DR PLAYGROUND,37558,BUBBLER/DRINKING FOUNTAIN,BUBBLER & TAP,-27.6413,153.031,503033,6942540,200484093
DOBOY,HEMMANT,D1998,BILL BENHAM PARK,B-RE-0174-N002,BILL BENHAM PARK SHARE PATHWAY,100118559,BUBBLER/DRINKING FOUNTAIN,DRINKING FOUNTAIN,-27.4474,153.12,511838,6964010,100118559
CENTRAL,BOWEN HILLS,D1984,JEAYS STREET PARK,B-RE-0183-N002,BALANCE OF PARK,38056,BUBBLER/DRINKING FOUNTAIN,DIABLED ACCESS BUBBLER,-27.4488,153.036,503578,6963860,200484350
MACGREGOR,WISHART,D1980,WISHART NATURE RESERVE,B-RE-0186-N001,BALANCE OF PARK,141723,BUBBLER/DRINKING FOUNTAIN,BUBBLER & 2 TAPS,-27.5568,153.094,509284,6951890,200538307
CENTRAL,NEW FARM,D1974,MERTHYR ROAD PARK (NO.2),B-RE-0192-N002,BALANCE OF PARK,118374,BUBBLER/DRINKING FOUNTAIN,BUBBLER,-27.4709,153.041,504055,6961410,200524025
ENOGGERA,MITCHELTON,D1970,LOCKROSE STREET PARK,B-RE-0196-N004,BALANCE OF PARK,71827,BUBBLER/DRINKING FOUNTAIN,BUBBLER & 2 TAPS,-27.4148,152.966,496637,6967620,200501782
MOOROOKA,WILLAWONG,D2105,GARDENS DRIVE PARK (NO 15),B-RE-0203-N002,BALANCE OF PARK,184851,BUBBLER/DRINKING FOUNTAIN,BUBBLER & TAP,-27.6055,153.03,502969,6946500,200563385
CALAMVALE,FOREST LAKE,D2171,SANCTUARY DRIVE PARK,B-RE-0205-N003,SNOWY RIVER CIRCUIT TENNIS COURT,120624,BUBBLER/DRINKING FOUNTAIN,DRINKING FOUNTAIN,-27.6357,152.984,498375,6943160,200525868
DOBOY,HEMMANT,D2163,PAUL CONTI PARK,B-RE-0212-N004,PAUL CONTI PK PATHWAY,125790,BUBBLER/DRINKING FOUNTAIN,TAP COMBINATION,-27.4498,153.128,512687,6963730,100104035
BRACKEN RIDGE,CARSELDINE,D2158,MACARANGA CRESCENT PARK,B-RE-0217-N004,MACARANGA CRESCENT PICNIC AREA,53172,BUBBLER/DRINKING FOUNTAIN,BUBBLER & TAP,-27.3409,153.014,501379,6975800,100125381
BRACKEN RIDGE,CARSELDINE,D2158,MACARANGA CRESCENT PARK,B-RE-0217-N005,WATERLILLY CIRCLE PICNIC AREA,53174,BUBBLER/DRINKING FOUNTAIN,BUBBLER & TAP,-27.3391,153.012,501154,6976010,100125383
PADDINGTON,KELVIN GROVE,D2996,GREY GUMS PARK,B-RE-0218-N002,GREY GUMS PK PICNIC AREA,174847,BUBBLER/DRINKING FOUNTAIN,DIABLED ACCESS BUBBLER,-27.4516,153.014,501335,6963550,200557390
DOBOY,WAKERLEY,D2995,ARENGA STREET PARK,B-RE-0219-N002,ARENGA ST PLAYGROUND,163202,BUBBLER/DRINKING FOUNTAIN,DRINKING FOUNTAIN,-27.4765,153.152,515039,6960780,200549798
DOBOY,MURARRIE,D2993,MINGOOLA PARK,B-RE-0221-N001,MINGOOLA PK PICNIC AREA,162206,BUBBLER/DRINKING FOUNTAIN,BUBBLER,-27.4588,153.102,510034,6962750,200549123
CALAMVALE,DREWVALE,D2912,LAPFORD PARK,B-RE-0225-N002,BALANCE OF PARK,175177,BUBBLER/DRINKING FOUNTAIN,BUBBLER & 2 TAPS,-27.6518,153.05,504912,6941370,200557517
MORNINGSIDE,BULIMBA,D2672,BULIMBA RIVERSIDE PARK,B-RE-0233-N001,BULIMBA RIVERSIDE PK DOG OFF LEASH AREA,92376,BUBBLER/DRINKING FOUNTAIN,BUBBLER & 2 TAPS,-27.454,153.055,505407,6963270,200510376
MORNINGSIDE,BULIMBA,D2672,BULIMBA RIVERSIDE PARK,B-RE-0233-N001,BULIMBA RIVERSIDE PK DOG OFF LEASH AREA,92377,BUBBLER/DRINKING FOUNTAIN,BUBBLER & 2 TAPS,-27.4538,153.054,505379,6963300,200510377
MORNINGSIDE,BULIMBA,D2672,BULIMBA RIVERSIDE PARK,B-RE-0233-N003,BRISBANE RIVER SHARED PATH & FISHING FACILITY,89894,BUBBLER/DRINKING FOUNTAIN,ACCESSIBLE DRINKING FOUNTAIN,-27.4505,153.053,505190,6963660,100251508
MORNINGSIDE,BULIMBA,D2672,BULIMBA RIVERSIDE PARK,B-RE-0233-N006,BULIMBA RIVERSIDE PK PICNIC AREA,92401,BUBBLER/DRINKING FOUNTAIN,BUBBLER & 2 TAPS,-27.4536,153.054,505313,6963320,200510388
MORNINGSIDE,BULIMBA,D2672,BULIMBA RIVERSIDE PARK,B-RE-0233-N006,BULIMBA RIVERSIDE PK PICNIC AREA,97468,BUBBLER/DRINKING FOUNTAIN,BUBBLER & 2 TAPS,-27.4541,153.054,505315,6963270,200512063
PULLENVALE,MOGGILL,D2613,WESTAWAY PARK (MOGGILL),B-RE-0241-N001,BALANCE OF PARK,135769,BUBBLER/DRINKING FOUNTAIN,DISABLED ACCESS FOUNTAIN,-27.5699,152.873,487502,6950440,200535863
PULLENVALE,MOGGILL,D2613,WESTAWAY PARK (MOGGILL),B-RE-0241-N004,WESTAWAY PK (MOGGILL) PICNIC AREA,135806,BUBBLER/DRINKING FOUNTAIN,DISABLED ACCESS FOUNTAIN,-27.5708,152.873,487442,6950330,200535893
CALAMVALE,FOREST LAKE,D2612,EUNGELLA TERRACE PARK,B-RE-0242-N003,SANCTUARY DRIVE PICNIC AREA,187118,BUBBLER/DRINKING FOUNTAIN,DRINKING FOUNTAIN,-27.6338,152.979,497920,6943370,200565319
THE GABBA,WOOLLOONGABBA,D3533,CARL STREET PARK,B-RE-0259-N001,BALANCE OF PARK,182075,BUBBLER/DRINKING FOUNTAIN,"BUBBLER, TAP & DOG BOWL",-27.4998,153.038,503708,6958200,200561117
TENNYSON,TENNYSON,D3398,KEN FLETCHER PARK,B-RE-0265-N002,KEN FLETCHER PK PICNIC AREA,193382,BUBBLER/DRINKING FOUNTAIN,BUBBLER & 2 TAPS,-27.5244,153.006,500635,6955480,100101217
TENNYSON,TENNYSON,D3398,KEN FLETCHER PARK,B-RE-0265-N003,KEN FLETCHER PK POWER STN DISTRICT PLAYGROUND,193696,BUBBLER/DRINKING FOUNTAIN,BUBBLER & 2 TAPS,-27.5245,153.006,500572,6955470,100101755
TENNYSON,TENNYSON,D3398,KEN FLETCHER PARK,B-RE-0265-N007,BRISBANE RIVER SHARED PATH & BOAT PONTOON,193581,BUBBLER/DRINKING FOUNTAIN,DRINKING FOUNTAIN,-27.5243,153.008,500750,6955490,100101519
TENNYSON,TENNYSON,D3398,KEN FLETCHER PARK,B-RE-0265-N007,BRISBANE RIVER SHARED PATH & BOAT PONTOON,193608,BUBBLER/DRINKING FOUNTAIN,BUBBLER & DOG BOWL,-27.5239,153.007,500719,6955530,100101546
CHANDLER,ROCHEDALE,D3316,STRAWBERRY FIELDS PLACE,B-RE-0269-N002,STRAWBERRYFIELDS PLACE PICNIC AREA,53344,BUBBLER/DRINKING FOUNTAIN,BUBBLER & TAP,-27.5716,153.113,511196,6950250,100125879
TENNYSON,OXLEY,D2176,FORT ROAD BUSHLANDS,B-RE-0283-N004,FORT RD PICNIC AREA,148247,BUBBLER/DRINKING FOUNTAIN,BUBBLER & 2 TAPS,-27.5467,152.965,496574,6953010,200541704
WALTER TAYLOR,TARINGA,D2138,WHITMORE STREET PARK,B-RE-0287-N001,WHITMORE ST PICNIC AREA,87775,BUBBLER/DRINKING FOUNTAIN,BUBBLER & 2 TAPS,-27.4911,152.987,498754,6959170,200508413
MCDOWALL,MCDOWALL,D2127,MALAGA STREET PARK,B-RE-0296-N001,BALANCE OF PARK,148415,BUBBLER/DRINKING FOUNTAIN,BUBBLER & 2 TAPS,-27.3897,152.987,498718,6970400,200541841
CALAMVALE,STRETTON,D2125,HAWTHORN AVENUE PARK,B-RE-0298-N001,BALANCE OF PARK,132180,BUBBLER/DRINKING FOUNTAIN,BUBBLER & TAP,-27.6276,153.061,506068,6944050,200533578
CALAMVALE,CALAMVALE,D2072,CALAMVALE DISTRICT PARK,B-RE-0312-N006,BALANCE OF PARK,142040,BUBBLER/DRINKING FOUNTAIN,BUBBLER,-27.6221,153.038,503739,6944660,200538555
CALAMVALE,CALAMVALE,D2072,CALAMVALE DISTRICT PARK,B-RE-0312-N006,BALANCE OF PARK,142045,BUBBLER/DRINKING FOUNTAIN,BUBBLER & 2 TAPS,-27.622,153.037,503683,6944670,200538560
CALAMVALE,CALAMVALE,D2072,CALAMVALE DISTRICT PARK,B-RE-0312-N008,FORMSKIRK ST CAR PARK PICNIC AREA,129615,BUBBLER/DRINKING FOUNTAIN,DRINKING FOUNTAIN,-27.6209,153.039,503862,6944790,100104930
PADDINGTON,MILTON,D2112,BEDGOOD PARK,B-RE-0321-N002,BEDGOOD PK PLAYGROUND,172951,BUBBLER/DRINKING FOUNTAIN,DIABLED ACCESS BUBBLER,-27.4625,153.005,500520,6962340,200556300
MCDOWALL,MCDOWALL,D2554,MCLEOD COURT PARK,B-RE-0330-N001,MCLEOD COURT PICNIC AREA,167009,BUBBLER/DRINKING FOUNTAIN,BUBBLER & 2 TAPS,-27.3892,152.996,499589,6970450,200552174
PADDINGTON,KELVIN GROVE,D2472,MAIDSTONE STREET PARK,B-RE-0343-N002,MAIDSTONE ST PICNIC AREA,111619,BUBBLER/DRINKING FOUNTAIN,DRINKING FOUNTAIN,-27.4547,153.016,501571,6963200,200519788
MORNINGSIDE,HAWTHORNE,D2312,BARTON ROAD POCKET PARK (ROAD RESERVE),B-RE-0350-N001,BALANCE OF PARK,48825,BUBBLER/DRINKING FOUNTAIN,APOLLO 400 DRINKING FOUNTAIN,-27.4583,153.053,505282,6962800,200488765
BRACKEN RIDGE,CARSELDINE,D2252,LACEY ROAD PARK,B-RE-0351-N005,LACEY RD DOG OFF LEASH AREA,100107379,BUBBLER/DRINKING FOUNTAIN,TAP COMBINATION,-27.3369,153.017,501689,6976250,100107379
BRACKEN RIDGE,CARSELDINE,D2252,LACEY ROAD PARK,B-RE-0351-N005,LACEY RD DOG OFF LEASH AREA,100107380,BUBBLER/DRINKING FOUNTAIN,TAP COMBINATION,-27.3369,153.017,501653,6976250,100107380
CHANDLER,WAKERLEY,D2232,SHERIFF PARK,B-RE-0352-N001,HABITAT DRIVE PICNIC AREA,81589,BUBBLER/DRINKING FOUNTAIN,BUBBLER & TAP,-27.487,153.163,516136,6959620,200505155
CALAMVALE,HEATHWOOD,D2190,BRUSH BOX PLACE PARK,B-RE-0357-N002,LAUREL ST PICNIC AREA,134839,BUBBLER/DRINKING FOUNTAIN,BUBBLER & TAP,-27.6322,152.994,499395,6943540,200535111
BRACKEN RIDGE,CARSELDINE,D3015,COWIE ROAD PARK,B-RE-0365-N002,COWIE RD PLAYGROUND,192780,BUBBLER/DRINKING FOUNTAIN,DIABLED ACCESS BUBBLER APOLLO 800,-27.3392,153.02,501961,6975990,200570223
NORTHGATE,BANYO,D3013,PATONGA STREET PARK,B-RE-0367-N001,PATONGA ST PICNIC AREA,169828,BUBBLER/DRINKING FOUNTAIN,BUBBLER & TAP,-27.3782,153.085,508395,6971680,200554069
FOREST LAKE,FOREST LAKE,D1743,WOOGAROO RESERVE,B-RE-0379-N003,BRIGHTON PDE PICNIC AREA,27701,BUBBLER/DRINKING FOUNTAIN,BUBBLER,-27.6307,152.977,497745,6943710,200479744
MOOROOKA,WILLAWONG,D1676,PALLARA PARK,B-RE-0386-N004,BROOKBENT RD DOG OFF LEASH AREA,179310,BUBBLER/DRINKING FOUNTAIN,BUBBLER 2 TAPS & DOG BOWL,-27.6092,153.012,501214,6946090,200559827
MCDOWALL,CHERMSIDE WEST,D1739,MILNE HILL RESERVE,B-RE-0392-N003,MILNE HILL RES SHARED PATHWAY,188749,BUBBLER/DRINKING FOUNTAIN,BUBBLER & TAP,-27.3791,153.002,500187,6971570,200566763
WYNNUM MANLY,MANLY,D1553,RQYS PORT CENTRE PARK,B-RE-0393-N002,DAVENPORT DVE,113673,BUBBLER/DRINKING FOUNTAIN,BUBBLER,-27.4613,153.191,518875,6962460,200521317
RUNCORN,KURABY,D1551,SVOBODA PARK,B-RE-0394-N001,SVOBODA PK PICNIC AREA,35252,BUBBLER/DRINKING FOUNTAIN,BUBBLER & TAP,-27.6056,153.098,509628,6946480,200482790
RUNCORN,KURABY,D1551,SVOBODA PARK,B-RE-0394-N001,SVOBODA PK PICNIC AREA,115753,BUBBLER/DRINKING FOUNTAIN,BUBBLER & TAP,-27.6053,153.098,509682,6946520,200522500
RUNCORN,KURABY,D1551,SVOBODA PARK,B-RE-0394-N003,SVOBADA PK DISTRICT PLAYGROUND,33981,BUBBLER/DRINKING FOUNTAIN,DRINKING FOUNTAIN,-27.6054,153.098,509663,6946510,200482204
NORTHGATE,VIRGINIA,D1550,WEST PLACE PARK,B-RE-0395-N001,BALANCE OF PARK,121699,BUBBLER/DRINKING FOUNTAIN,BUBBLER & TAP,-27.3832,153.069,506839,6971120,200526808
DOBOY,TINGALPA,D1548,COOCHIN PLACE PARK,B-RE-0397-N001,COOCHIN PLACE PICNIC AREA,163321,BUBBLER/DRINKING FOUNTAIN,BUBBLER & TAP,-27.4709,153.142,513993,6961400,200549817
JAMBOREE,WESTLAKE,D1544,RIVERVIEW FARM PARK,B-RE-0401-N004,WENDOUREE CRES PLAYGROUND,41885,BUBBLER/DRINKING FOUNTAIN,BUBBLER,-27.5459,152.904,490567,6953100,200486322
CENTRAL,NEW FARM,D1535,POWERHOUSE PARK,B-RE-0410-N002,BALANCE OF PARK,123507,BUBBLER/DRINKING FOUNTAIN,BUBBLER & 2 TAPS,-27.4678,153.054,505355,6961750,200528462
DEAGON,TAIGUM,D1727,JAGERA CIRCUIT PARK,B-RE-0414-N001,BALANCE OF PARK,155491,BUBBLER/DRINKING FOUNTAIN,DRINKING FOUNTAIN,-27.3411,153.044,504347,6975780,200546914
PADDINGTON,MILTON,D1723,FREW PARK,B-RE-0416-N002,WENDY TURNBULL GREEN PICNIC AREA & CIRCUIT PATH,86387,BUBBLER/DRINKING FOUNTAIN,DRINKING FOUNTAIN & TAP,-27.4686,153,500021,6961660,100087324
PADDINGTON,MILTON,D1723,FREW PARK,B-RE-0416-N002,WENDY TURNBULL GREEN PICNIC AREA & CIRCUIT PATH,86420,BUBBLER/DRINKING FOUNTAIN,BUBBLER & TAPS,-27.4694,153,499984,6961570,100087334
PADDINGTON,MILTON,D1723,FREW PARK,B-RE-0416-N003,FREW PK TABLE TENNIS & FITNESS STATION,86414,BUBBLER/DRINKING FOUNTAIN,DRINKING FOUNTAIN & TAP,-27.4697,153,500005,6961540,100087341
PADDINGTON,MILTON,D1723,FREW PARK,B-RE-0416-N004,FREW PK KIOSK,84666,BUBBLER/DRINKING FOUNTAIN,DRINKING FOUNTAIN,-27.4696,153.001,500070,6961550,100104457
PADDINGTON,MILTON,D1723,FREW PARK,B-RE-0416-N006,FREW PK PICNIC AREA & PLAYGROUND ACCESS,193898,BUBBLER/DRINKING FOUNTAIN,DRINKING FOUNTAIN & TAP,-27.4694,153,500040,6961570,100104723
PADDINGTON,MILTON,D1723,FREW PARK,B-RE-0416-N009,FREW PK BOOKING SITE SHELTER ONE,86426,BUBBLER/DRINKING FOUNTAIN,DRINKING FOUNTAIN & TAP,-27.4689,152.999,499945,6961620,100087337
CALAMVALE,PARKINSON,D1722,ALGESTER ROAD PARK (NO.515),B-RE-0417-N002,ALGESTER RD PICNIC AREA,174015,BUBBLER/DRINKING FOUNTAIN,BUBBLER & TAP,-27.6365,153.029,502839,6943060,200556933
CALAMVALE,PARKINSON,D1722,ALGESTER ROAD PARK (NO.515),B-RE-0417-N003,BALANCE OF PARK,27797,BUBBLER/DRINKING FOUNTAIN,BUBBLER & TAP,-27.6364,153.029,502885,6943070,200479806
PULLENVALE,KENMORE,D1720,PALM STREET PARK,B-RE-0419-N001,PALM ST PLAYGROUND,93280,BUBBLER/DRINKING FOUNTAIN,BUBBLER & 2 TAPS,-27.515,152.933,493398,6956520,200510707
THE GAP,ASHGROVE,D1710,ST JOHNS AVENUE PARK (NOS.7-27),B-RE-0427-N003,ST JOHNS AVE PLAYGROUND,95197,BUBBLER/DRINKING FOUNTAIN,BUBBLER & 2 TAPS,-27.4439,152.974,497462,6964400,200511098
THE GAP,ASHGROVE,D1710,ST JOHNS AVENUE PARK (NOS.7-27),B-RE-0427-N004,ENOGGERA CK PICNIC AREA,27651,BUBBLER/DRINKING FOUNTAIN,BUBBLER & TAP,-27.4436,152.975,497521,6964430,200479709
PULLENVALE,MOGGILL,D1699,LIVESAY ROAD PARK,B-RE-0434-N001,BALANCE OF PARK,86547,BUBBLER/DRINKING FOUNTAIN,BUBBLER & TAP,-27.5691,152.885,488669,6950530,200508009
MARCHANT,STAFFORD HEIGHTS,D1689,WEBSTER ROAD PARK,B-RE-0444-N001,WEBSTER RD DOG OFF LEASH AREA,182100,BUBBLER/DRINKING FOUNTAIN,BUBBLER/DRINKING FOUNTAIN,-27.3946,153.019,501885,6969860,200561136
MARCHANT,STAFFORD HEIGHTS,D1689,WEBSTER ROAD PARK,B-RE-0444-N001,WEBSTER RD DOG OFF LEASH AREA,182101,BUBBLER/DRINKING FOUNTAIN,BUBBLER/DRINKING FOUNTAIN,-27.3946,153.019,501925,6969860,200561137
MARCHANT,STAFFORD HEIGHTS,D1689,WEBSTER ROAD PARK,B-RE-0444-N003,BALANCE OF PARK,151914,BUBBLER/DRINKING FOUNTAIN,BUBBLER & TAP,-27.3945,153.02,501935,6969860,200543991
FOREST LAKE,FOREST LAKE,D1683,PRINCETON PLACE PARK,B-RE-0448-N003,BALANCE OF PARK,120455,BUBBLER/DRINKING FOUNTAIN,BUBBLER & 2 TAPS,-27.6267,152.974,497448,6944150,200525721
DOBOY,WAKERLEY,D1582,MANLY ROAD PARK (NO.880),B-RE-0453-N003,LEXEY CRESCENT PICNIC AREA,65909,BUBBLER/DRINKING FOUNTAIN,BUBBLER & 2 TAPS,-27.4781,153.149,514734,6960610,200500155
BRACKEN RIDGE,CARSELDINE,D1576,PAT RAFTER PARK,B-RE-0456-N001,PAT RAFTER PK PICNIC AREA,48740,BUBBLER/DRINKING FOUNTAIN,BUBBLER & 2 TAPS,-27.3414,153.009,500934,6975750,200488747
BRACKEN RIDGE,CARSELDINE,D1576,PAT RAFTER PARK,B-RE-0456-N003,PAT RAFTER PK DOG OFF LEASH AREA,43113,BUBBLER/DRINKING FOUNTAIN,"BUBBLER, TAP & DOG BOWL",-27.3409,153.009,500907,6975810,200486837
DOBOY,WAKERLEY,D1572,WAKERLEY PARK,B-RE-0459-N004,CLAIRE PLACE PLAYGROUND,58898,BUBBLER/DRINKING FOUNTAIN,TAP COMBINATION,-27.4864,153.151,514868,6959680,200494529
FOREST LAKE,FOREST LAKE,D1566,FOREST LAKE SPORTS FIELDS,B-RE-0463-N004,FOREST LAKE SPORTS FIELDS PLAYGROUND,121257,BUBBLER/DRINKING FOUNTAIN,BUBBLER & TAP,-27.6192,152.972,497206,6944980,200526400
FOREST LAKE,FOREST LAKE,D1566,FOREST LAKE SPORTS FIELDS,B-RE-0463-N004,FOREST LAKE SPORTS FIELDS PLAYGROUND,121258,BUBBLER/DRINKING FOUNTAIN,BUBBLER & TAP,-27.6192,152.972,497210,6944980,200526401
CALAMVALE,CALAMVALE,D1463,HAMISH STREET PARK,B-RE-0473-N001,HAMISH ST PICNIC AREA,34423,BUBBLER/DRINKING FOUNTAIN,"BUBBLER, TAP & DOG BOWL",-27.6186,153.044,504326,6945050,200482351
BRACKEN RIDGE,FITZGIBBON,D1461,IRIS PLACE PARK,B-RE-0474-N005,DIAMANTINA CRES PICNIC AREA,15236,BUBBLER/DRINKING FOUNTAIN,DRINKING FOUNTAIN,-27.3421,153.029,502894,6975670,200475659
CHANDLER,CARINDALE,D1452,NEWBURY PLACE PARK,B-RE-0482-N002,NEWBURY PLACE DOG OFF LEASH AREA,34687,BUBBLER/DRINKING FOUNTAIN,"BUBBLER, TAP & DOG BOWL",-27.5247,153.12,511839,6955440,200482503
CHANDLER,CARINDALE,D1452,NEWBURY PLACE PARK,B-RE-0482-N002,NEWBURY PLACE DOG OFF LEASH AREA,103386,BUBBLER/DRINKING FOUNTAIN,BUBBLER & 2 TAPS,-27.5247,153.12,511863,6955450,200514516
MORNINGSIDE,MORNINGSIDE,D1631,YORK STREET PARK,B-RE-0498-N001,BEELARONG COMMUNITY GARDEN,67363,BUBBLER/DRINKING FOUNTAIN,BUBBLER & TAP,-27.4608,153.078,507706,6962530,200500431
DOBOY,TINGALPA,D1619,TORQUAY CRESCENT (NO.1695) PARK,B-RE-0506-N004,BALANCE OF PARK,38885,BUBBLER/DRINKING FOUNTAIN,BUBBLER,-27.4702,153.139,513769,6961480,200484756
CALAMVALE,PARKINSON,D1617,GREENWAYS ESPLANADE PARK,B-RE-0508-N004,GREENWAYS ESP PICNIC AREA,33556,BUBBLER/DRINKING FOUNTAIN,BUBBLER & 2 TAPS,-27.6368,153.02,502004,6943030,200482005
CALAMVALE,PARKINSON,D1617,GREENWAYS ESPLANADE PARK,B-RE-0508-N007,GREENWAYS ESP DOG OFF LEASH AREA,46530,BUBBLER/DRINKING FOUNTAIN,BUBBLER 2 TAPS & DOG BOWL,-27.6359,153.02,501956,6943130,200488348
CHANDLER,CARINDALE,D1615,GRANDVIEW PLACE PARK,B-RE-0510-N001,GRANDVIEW PLACE PICNIC AREA,28832,BUBBLER/DRINKING FOUNTAIN,BUBBLER & TAP,-27.5168,153.123,512137,6956310,200480333
MORNINGSIDE,MORNINGSIDE,D1611,ALGOORI STREET PARK,B-RE-0513-N002,BEVERLEY ST PLAYGROUND,43942,BUBBLER/DRINKING FOUNTAIN,BUBBLER & TAP,-27.4629,153.078,507745,6962290,200487173
WYNNUM MANLY,MANLY WEST,D1591,LEWIS PLACE PARK,B-RE-0531-N002,BALANCE OF PARK,100553,BUBBLER/DRINKING FOUNTAIN,BUBBLER & TAP,-27.4658,153.156,515421,6961960,200512939
CALAMVALE,DREWVALE,D1874,KARAWATHA FOREST SOUTH,B-RE-0539-N005,TAMARISK WAY PICNIC AREA,25142,BUBBLER/DRINKING FOUNTAIN,BUBBLER & TAP,-27.6429,153.048,504705,6942360,200478997
THE GAP,UPPER KEDRON,D1867,TREVALLYN PLACE PARK,B-RE-0545-N001,TREVALLYN PL PLAYGROUND,41368,BUBBLER/DRINKING FOUNTAIN,BUBBLER & TAP,-27.4162,152.925,492552,6967460,200526184
DOBOY,BELMONT,D1865,SUMMIT STREET PARK,B-RE-0546-N002,GIORDANO PLACE PLAYGROUND,113900,BUBBLER/DRINKING FOUNTAIN,BUBBLER & TAP,-27.4892,153.13,512840,6959370,200521493
DOBOY,BELMONT,D1865,SUMMIT STREET PARK,B-RE-0546-N003,SUMMIT ST PICNIC AREA,113819,BUBBLER/DRINKING FOUNTAIN,BUBBLER & TAP,-27.4904,153.13,512800,6959240,200521433
JAMBOREE,MOUNT OMMANEY,D1864,LORIKEET PARK,B-RE-0547-N001,GREENWAY CCT PLAYGROUND,45835,BUBBLER/DRINKING FOUNTAIN,BUBBLER,-27.5496,152.935,493558,6952690,200488243
JAMBOREE,MOUNT OMMANEY,D1864,LORIKEET PARK,B-RE-0547-N001,GREENWAY CCT PLAYGROUND,187574,BUBBLER/DRINKING FOUNTAIN,BUBBLER 2 TAPS & DOG BOWL,-27.5496,152.935,493571,6952690,200565732
JAMBOREE,MOUNT OMMANEY,D1864,LORIKEET PARK,B-RE-0547-N002,CENTENARY SUBURBS WAR MEMORIAL GARDENS,187636,BUBBLER/DRINKING FOUNTAIN,TAP COMBINATION,-27.5486,152.936,493657,6952790,200565787
HOLLAND PARK,MOUNT GRAVATT EAST,D1863,GEOFF TOAKLEY PARK,B-RE-0548-N001,GEOFF TOAKLEY PK PLAYGROUND,121961,BUBBLER/DRINKING FOUNTAIN,BUBBLER,-27.5402,153.085,508364,6953730,200527051
FOREST LAKE,FOREST LAKE,D1862,CENTRAL STREET PARK,B-RE-0549-N002,CENTRAL ST NETBALL HALF CIRCLE,31508,BUBBLER/DRINKING FOUNTAIN,DRINKING FOUNTAIN & 2 TAPS,-27.6316,152.961,496136,6943610,200481324
MOOROOKA,MOOROOKA,D1790,LUXWORTH PLACE (ROAD RESERVE),B-RE-0552-N001,BALANCE OF PARK,25827,BUBBLER/DRINKING FOUNTAIN,DRINKING FOUNTAIN,-27.532,153.024,502371,6954640,200479144
CENTRAL,BRISBANE,D1784,ADMIRALTY TOWERS 11 PARK,B-RE-0556-N002,BALANCE OF PARK,33632,BUBBLER/DRINKING FOUNTAIN,DRINKING FOUNTAIN,-27.4643,153.032,503132,6962130,200482029
MACGREGOR,WISHART,D1777,BERKSHIRE CRESCENT PARK,B-RE-0560-N001,BERKSHIRE CRES DOG OFF LEASH AREA,100051,BUBBLER/DRINKING FOUNTAIN,BUBBLER & 2 TAPS,-27.5486,153.099,509821,6952800,200512811
MACGREGOR,WISHART,D1777,BERKSHIRE CRESCENT PARK,B-RE-0560-N004,BERKSHIRE CRES PICNIC AREA,100011,BUBBLER/DRINKING FOUNTAIN,BUBBLER & TAP,-27.5492,153.1,509845,6952730,200512787
MCDOWALL,MCDOWALL,D1768,STREISAND DRIVE PARK,B-RE-0567-N002,STRIESAND DR (DI VITO PLACE) PLAYGROUND,172584,BUBBLER/DRINKING FOUNTAIN,BUBBLER,-27.3735,152.981,498151,6972190,200556014
DOBOY,MURARRIE,D1763,COLMSLIE BEACH RESERVE,B-RE-0572-N003,FISH MARKET PICNIC AREA,25612,BUBBLER/DRINKING FOUNTAIN,DRINKING FOUNTAIN,-27.4503,153.09,508916,6963690,200479091
DOBOY,MURARRIE,D1763,COLMSLIE BEACH RESERVE,B-RE-0572-N006,'OCTOPUS GARDEN' DISTRICT PLAYGROUND,43203,BUBBLER/DRINKING FOUNTAIN,BUBBLER & TAP,-27.4512,153.09,508918,6963590,200486853
DOBOY,MURARRIE,D1763,COLMSLIE BEACH RESERVE,B-RE-0572-N007,COLMSLIE BEACH ACCESS & CAR PARKING,25613,BUBBLER/DRINKING FOUNTAIN,BUBBLER & TAP,-27.4503,153.091,508973,6963680,200479092
FOREST LAKE,FOREST LAKE,D1759,REGENTS CIRCUIT PARK,B-RE-0575-N001,REGENTS CCT SHARED PATHWAY NETWORK,32715,BUBBLER/DRINKING FOUNTAIN,REVIVA REFILL STATION,-27.6291,152.957,495776,6943890,100111801
DOBOY,WAKERLEY,D1904,PHILLIPS PLACE PARK (WAKERLEY),B-RE-0594-N002,CAMPBELL ST DOG OFF LEASH AREA,118161,BUBBLER/DRINKING FOUNTAIN,BUBBLER & 2 TAPS,-27.4831,153.146,514438,6960050,200523821
DOBOY,WAKERLEY,D1904,PHILLIPS PLACE PARK (WAKERLEY),B-RE-0594-N003,PHILLIPS PLACE SHARED PATHWAY NETWORK,118205,BUBBLER/DRINKING FOUNTAIN,BUBBLER & TAP,-27.485,153.146,514386,6959840,200523865
DOBOY,WAKERLEY,D1904,PHILLIPS PLACE PARK (WAKERLEY),B-RE-0594-N003,PHILLIPS PLACE SHARED PATHWAY NETWORK,118215,BUBBLER/DRINKING FOUNTAIN,BUBBLER & TAP,-27.4838,153.146,514445,6959970,200523875
DOBOY,WAKERLEY,D1904,PHILLIPS PLACE PARK (WAKERLEY),B-RE-0594-N003,PHILLIPS PLACE SHARED PATHWAY NETWORK,118216,BUBBLER/DRINKING FOUNTAIN,BUBBLER & 2 TAPS,-27.4831,153.146,514470,6960050,200523876
HAMILTON,PINKENBA,D1902,EAGLE FARM ROAD PARK,B-RE-0596-N001,EAGLE FARM RD PICNIC AREA,45938,BUBBLER/DRINKING FOUNTAIN,BUBBLER & 2 TAPS,-27.4202,153.12,511853,6967010,200488294
PULLENVALE,KARANA DOWNS,D1901,KUPI PARK,B-RE-0597-N002,LIONS NATURE TRAIL BUSHCARE GP RESTORATION SITE (PART),35580,BUBBLER/DRINKING FOUNTAIN,BUBBLER & TAP,-27.5388,152.822,482438,6953880,200482972
PULLENVALE,KARANA DOWNS,D1901,KUPI PARK,B-RE-0597-N005,LIONS NATURE TRAIL,86143,BUBBLER/DRINKING FOUNTAIN,BUBBLER & TAP,-27.5414,152.824,482633,6953580,200507776
PULLENVALE,KARANA DOWNS,D1897,ILLAWONG RESERVE,B-RE-0600-N001,THE LIONS RUGBY UNION & CRICKET FACILITY,86166,BUBBLER/DRINKING FOUNTAIN,BUBBLER & 2 TAPS,-27.5534,152.818,482035,6952250,200507798
PULLENVALE,MOUNT CROSBY,D1894,PLATYPUS PARK,B-RE-0602-N002,PLATYPUS PK PICNIC AREA,80109,BUBBLER/DRINKING FOUNTAIN,BUBBLER & 2 TAPS,-27.5241,152.818,482024,6955500,200504506
PULLENVALE,KARANA DOWNS,D1888,HERITAGE PARK,B-RE-0608-N001,HERITAGE PK PLAYGROUND,27994,BUBBLER/DRINKING FOUNTAIN,BUBBLER & TAP,-27.5438,152.832,483420,6953320,200479919
PULLENVALE,KARANA DOWNS,D1886,KOOKABURRA PARK - WEST,B-RE-0610-N003,KOOKABURRA PK WEST DOG OFF LEASH AREA,30665,BUBBLER/DRINKING FOUNTAIN,"DISABLED FOUNTAIN, TAP & DOG BOWL",-27.5437,152.84,484200,6953330,200480845
PULLENVALE,KARANA DOWNS,D1886,KOOKABURRA PARK - WEST,B-RE-0610-N004,KOOKABURRA PK WEST TOILET,86331,BUBBLER/DRINKING FOUNTAIN,DRINKING FOUNTAIN DISABLED ACCESS,-27.5438,152.839,484056,6953320,200485058
PULLENVALE,KARANA DOWNS,D1886,KOOKABURRA PARK - WEST,B-RE-0610-N008,PLAYGROUND PICNIC AREA,86333,BUBBLER/DRINKING FOUNTAIN,DISABLED DRINKING FOUNTAIN,-27.5436,152.839,484113,6953350,200507911
PULLENVALE,KARANA DOWNS,D1886,KOOKABURRA PARK - WEST,B-RE-0610-N010,KOOKABURRA PK WEST PERFORMANCE SPACE,35549,BUBBLER/DRINKING FOUNTAIN,BUBBLER & TAP,-27.5437,152.837,483927,6953330,200482958
MCDOWALL,BRIDGEMAN DOWNS,D1757,DARIEN STREET PARK (NO.29),B-RE-0618-N001,DARIEN ST SPORTS FIELDS,29535,BUBBLER/DRINKING FOUNTAIN,BUBBLER & TAP,-27.3568,152.991,499152,6974040,100134002
MCDOWALL,BRIDGEMAN DOWNS,D1757,DARIEN STREET PARK (NO.29),B-RE-0618-N001,DARIEN ST SPORTS FIELDS,29684,BUBBLER/DRINKING FOUNTAIN,"BUBBLER, TAP & DOG BOWL",-27.3582,152.99,499010,6973890,200480474
THE GAP,THE GAP,D1809,BADRICK PARK,B-RE-0621-N002,INWOOD PLACE PLAYGROUND,88234,BUBBLER/DRINKING FOUNTAIN,BUBBLER & 2 TAPS,-27.4323,152.939,493962,6965680,200508494
FOREST LAKE,FOREST LAKE,D1799,CLAREMONT PARADE PARK,B-RE-0631-N001,CLAREMONT PDE MEETING SPACE,120527,BUBBLER/DRINKING FOUNTAIN,DRINKING FOUNTAIN,-27.6314,152.973,497375,6943630,200525784
MCDOWALL,STAFFORD,D1651,SHAND STREET PARK (NO.100),B-RE-0640-N001,SHAND ST SKATE FACILITY & BASKETBALL COURT,123972,BUBBLER/DRINKING FOUNTAIN,BUBBLER & TAP,-27.4142,153.003,500305,6967680,200528700
MCDOWALL,STAFFORD,D1651,SHAND STREET PARK (NO.100),B-RE-0640-N003,SHAND ST DOG OFF LEASH AREA,30786,BUBBLER/DRINKING FOUNTAIN,"BUBBLER, TAP & DOG BOWL",-27.4141,153.004,500357,6967690,200480907
PADDINGTON,MILTON,D1639,ADAM SMIDDY PARK,B-RE-0650-N001,BALANCE OF PARK,110643,BUBBLER/DRINKING FOUNTAIN,CONE TYPE,-27.4707,153.004,500416,6961430,200519035
CHANDLER,CARINDALE,D1638,CRIBB ROAD PARK,B-RE-0651-N003,OAKLEY ST PLAYGROUND,39399,BUBBLER/DRINKING FOUNTAIN,BUBBLER RED APOLLO 400,-27.5282,153.12,511818,6955050,200485045
CHANDLER,CARINDALE,D1638,CRIBB ROAD PARK,B-RE-0651-N006,OAKLEY ST PICNIC AREA,40143,BUBBLER/DRINKING FOUNTAIN,"BUBBLER, TAP & DOG BOWL",-27.5282,153.12,511801,6955060,200485470
DOBOY,HEMMANT,D1752,PINNIBAR STREET PARK,B-RE-0664-N002,PINNIBAR ST PICNIC AREA,122991,BUBBLER/DRINKING FOUNTAIN,DRINKING FOUNTAIN,-27.4575,153.129,512708,6962890,200528012
CALAMVALE,CALAMVALE,D1750,BORAGE PLACE PARK,B-RE-0665-N002,BORAGE PL PLAYGROUND,131068,BUBBLER/DRINKING FOUNTAIN,TAP COMBINATION,-27.6288,153.05,504965,6943910,200532827
JAMBOREE,SEVENTEEN MILE ROCKS,D1845,ROCKS RIVERSIDE PARK,B-RE-0673-N002,ROCKS RIVERSIDE PK METROPOLITAN  PLAYGROUND,36229,BUBBLER/DRINKING FOUNTAIN,DRINKING FOUNTAIN,-27.5423,152.961,496101,6953500,200483334
JAMBOREE,SEVENTEEN MILE ROCKS,D1845,ROCKS RIVERSIDE PARK,B-RE-0673-N016,RRP GREAT LAWN EVENT SPACE,122698,BUBBLER/DRINKING FOUNTAIN,DIABLED ACCESS BUBBLER,-27.543,152.961,496174,6953420,200527745
JAMBOREE,SEVENTEEN MILE ROCKS,D1845,ROCKS RIVERSIDE PARK,B-RE-0673-N016,RRP GREAT LAWN EVENT SPACE,122725,BUBBLER/DRINKING FOUNTAIN,DIABLED ACCESS BUBBLER,-27.543,152.963,496306,6953420,200527770
JAMBOREE,SEVENTEEN MILE ROCKS,D1845,ROCKS RIVERSIDE PARK,B-RE-0673-N016,RRP GREAT LAWN EVENT SPACE,177442,BUBBLER/DRINKING FOUNTAIN,CONCRETE BLOCK,-27.5698,153.071,507050,6950450,100106872
JAMBOREE,SEVENTEEN MILE ROCKS,D1845,ROCKS RIVERSIDE PARK,B-RE-0673-N017,RRP RIVER PROMENADE SHARED PATHWAY NETWORK,47324,BUBBLER/DRINKING FOUNTAIN,DRINKING FOUNTAIN,-27.5399,152.961,496127,6953760,100085986
JAMBOREE,SEVENTEEN MILE ROCKS,D1845,ROCKS RIVERSIDE PARK,B-RE-0673-N021,BALANCE OF PARK,29378,BUBBLER/DRINKING FOUNTAIN,BUBBLER & TAP,-27.5405,152.958,495892,6953690,100132616
JAMBOREE,SEVENTEEN MILE ROCKS,D1845,ROCKS RIVERSIDE PARK,B-RE-0673-N021,BALANCE OF PARK,122621,BUBBLER/DRINKING FOUNTAIN,DIABLED ACCESS BUBBLER,-27.5426,152.959,495966,6953470,200527670
JAMBOREE,SEVENTEEN MILE ROCKS,D1845,ROCKS RIVERSIDE PARK,B-RE-0673-N021,BALANCE OF PARK,122628,BUBBLER/DRINKING FOUNTAIN,DIABLED ACCESS BUBBLER,-27.5413,152.959,495985,6953610,200527677
JAMBOREE,SEVENTEEN MILE ROCKS,D1845,ROCKS RIVERSIDE PARK,B-RE-0673-N021,BALANCE OF PARK,122631,BUBBLER/DRINKING FOUNTAIN,DIABLED ACCESS BUBBLER,-27.5419,152.96,496028,6953540,200527680
JAMBOREE,SEVENTEEN MILE ROCKS,D1845,ROCKS RIVERSIDE PARK,B-RE-0673-N021,BALANCE OF PARK,122689,BUBBLER/DRINKING FOUNTAIN,DIABLED ACCESS BUBBLER,-27.543,152.96,496051,6953420,200527737
JAMBOREE,SEVENTEEN MILE ROCKS,D1845,ROCKS RIVERSIDE PARK,B-RE-0673-N021,BALANCE OF PARK,122710,BUBBLER/DRINKING FOUNTAIN,DIABLED ACCESS BUBBLER,-27.5422,152.961,496159,6953510,200527756
JAMBOREE,SEVENTEEN MILE ROCKS,D1845,ROCKS RIVERSIDE PARK,B-RE-0673-N021,BALANCE OF PARK,122711,BUBBLER/DRINKING FOUNTAIN,DIABLED ACCESS BUBBLER,-27.5419,152.962,496201,6953550,200527757
JAMBOREE,SEVENTEEN MILE ROCKS,D1845,ROCKS RIVERSIDE PARK,B-RE-0673-N025,RRP WATERPLAY TOILET,122750,BUBBLER/DRINKING FOUNTAIN,DIABLED ACCESS BUBBLER,-27.5433,152.961,496119,6953380,200527795
JAMBOREE,SEVENTEEN MILE ROCKS,D1845,ROCKS RIVERSIDE PARK,B-RE-0673-N028,COUNIHAM RD RIVERSIDE PICNIC AREA,47325,BUBBLER/DRINKING FOUNTAIN,DRINKING FOUNTAIN,-27.5389,152.96,496079,6953880,100086003
THE GAP,THE GAP,D1844,DONEGAL PLACE PARK,B-RE-0674-N001,BALANCE OF PARK,88228,BUBBLER/DRINKING FOUNTAIN,BUBBLER & TAP,-27.433,152.942,494241,6965610,200508488
WYNNUM MANLY,WYNNUM WEST,D1842,EVELYN ROAD PARK,B-RE-0676-N001,EVELYN RD DOG OFF LEASH AREA,123073,BUBBLER/DRINKING FOUNTAIN,BUBBLER & TAP,-27.4517,153.145,514334,6963520,200528093
WYNNUM MANLY,WYNNUM WEST,D1842,EVELYN ROAD PARK,B-RE-0676-N002,BALANCE OF PARK,123041,BUBBLER/DRINKING FOUNTAIN,BUBBLER & TAP,-27.4519,153.145,514357,6963510,200528062
DOBOY,MURARRIE,D1838,MOONIE AVENUE PARK,B-RE-0679-N001,MOONIE AVE LOOKOUT,101174,BUBBLER/DRINKING FOUNTAIN,BUBBLER & TAP,-27.4592,153.096,509462,6962700,200513156
MOOROOKA,OXLEY,D1837,WESTON PLACE PARK,B-RE-0680-N001,WESTON PLACE PLAYGROUND,31477,BUBBLER/DRINKING FOUNTAIN,BUBBLER & TAP,-27.5744,152.984,498448,6949940,200481309
RUNCORN,SUNNYBANK HILLS,D1830,COVENTRY PLACE PARK,B-RE-0686-N002,COVENTRY PLACE FORMAL LANDSCAPE,31470,BUBBLER/DRINKING FOUNTAIN,BUBBLER & 2 TAPS,-27.6019,153.054,505309,6946900,200481303
JAMBOREE,SINNAMON PARK,D1824,SIR HERCULES SINNAMON PARK,B-RE-0689-N001,BALANCE OF PARK,130985,BUBBLER/DRINKING FOUNTAIN,TAP COMBINATION,-27.5335,152.951,495167,6954470,200532758
JAMBOREE,SINNAMON PARK,D1823,THOMAS MACLEOD PARK,B-RE-0690-N003,STAVELEY CLOSE DOG OFF LEASH AREA,53374,BUBBLER/DRINKING FOUNTAIN,"BUBBLER, TAP & DOG BOWL",-27.5388,152.956,495658,6953890,100125911
JAMBOREE,SINNAMON PARK,D1823,THOMAS MACLEOD PARK,B-RE-0690-N003,STAVELEY CLOSE DOG OFF LEASH AREA,131831,BUBBLER/DRINKING FOUNTAIN,"BUBBLER, TAP & DOG BOWL",-27.5392,152.955,495588,6953840,200533322
ENOGGERA,NEWMARKET,D1821,NELSON PLACE PARK,B-RE-0692-N001,BALANCE OF PARK,90406,BUBBLER/DRINKING FOUNTAIN,BUBBLER & TAP,-27.431,153.002,500229,6965820,200509496
NORTHGATE,BANYO,D1817,HILLTOP PLACE PARK,B-RE-0696-N001,BALANCE OF PARK,192768,BUBBLER/DRINKING FOUNTAIN,BUBBLER/DRINKING FOUNTAIN,-27.3764,153.084,508274,6971870,200570220
DOBOY,MURARRIE,D1815,CARNARVON WAY PARK,B-RE-0698-N002,BALANCE OF PARK,101232,BUBBLER/DRINKING FOUNTAIN,BUBBLER & TAP,-27.4628,153.095,509398,6962300,200513197
CALAMVALE,STRETTON,D3652,STRETTON WETLAND RESERVE,B-RE-0701-N001,THE PARKWAY PLAYGROUND & ROTUNDA,188011,BUBBLER/DRINKING FOUNTAIN,BUBBLER & TAP,-27.6312,153.059,505793,6943650,200566142
MACGREGOR,EIGHT MILE PLAINS,D3118,MCKINLAY-DAVEY PARK,B-RE-1119-N002,BALANCE OF PARK,166730,BUBBLER/DRINKING FOUNTAIN,DRINKING FOUNTAIN,-27.5751,153.103,510126,6949860,200552005
PULLENVALE,MOGGILL,D3055,LANCEWOOD PLACE PARK,B-RE-1128-N001,BALANCE OF PARK,192323,BUBBLER/DRINKING FOUNTAIN,BUBBLER,-27.5669,152.868,486983,6950760,200569871
CALAMVALE,HEATHWOOD,D3054,HEATHWOOD PARK,B-RE-1129-N003,PARKWOOD DVE PICNIC AREA,166601,BUBBLER/DRINKING FOUNTAIN,BUBBLER & TAP,-27.6373,152.987,498717,6942970,200551903
THE GABBA,DUTTON PARK,D3835,OUTLOOK PARK,B-RE-1142-N001,BALANCE OF PARK,47305,BUBBLER/DRINKING FOUNTAIN,DRINKING FOUNTAIN,-27.4948,153.031,503028,6958760,100087222
BRACKEN RIDGE,CARSELDINE,D3733,NORTHMARQUE STREET PARK,B-RE-1154-N001,BALANCE OF PARK,196099,BUBBLER/DRINKING FOUNTAIN,BUBBLER WITH DOG BOWL AND 2 TAPS,-27.3421,153.017,501712,6975670,100251599
PULLENVALE,MOGGILL,D3122,JARRAH STREET PARK,B-RE-1197-N001,BALANCE OF PARK,192292,BUBBLER/DRINKING FOUNTAIN,BUBBLER,-27.5733,152.869,487095,6950060,200569843
CHANDLER,MACKENZIE,D3121,TAYLOR PLACE PARK,B-RE-1198-N001,TAYLOR PLACE PLAYGROUND,183086,BUBBLER/DRINKING FOUNTAIN,BUBBLER,-27.5424,153.12,511828,6953480,200561840
PADDINGTON,BARDON,D0473,RAINWORTH PARK,B-RE-1365-N002,RAINWORTH PK PICNIC AREA,110917,BUBBLER/DRINKING FOUNTAIN,BUBBLER & 2 TAPS,-27.467,152.983,498312,6961840,200519263
PADDINGTON,AUCHENFLOWER,D0474,MOORLANDS PARK,B-RE-1367-N002,MOORLANDS PK PLAYGROUND,12792,BUBBLER/DRINKING FOUNTAIN,BUBBLER & 2 TAPS,-27.479,152.997,499731,6960510,200474800
PADDINGTON,TOOWONG,D0475,REGATTA PARK,B-RE-1368-N001,REGATTA FERRY TERMINAL,12825,BUBBLER/DRINKING FOUNTAIN,BUBBLER,-27.4831,152.997,499673,6960060,200474812
PADDINGTON,TOOWONG,D0475,REGATTA PARK,B-RE-1368-N002,BALANCE OF PARK,110572,BUBBLER/DRINKING FOUNTAIN,BUBBLER & TAP,-27.4812,152.998,499757,6960270,200518978
PADDINGTON,TOOWONG,D0471,TOOWONG MEMORIAL PARK,B-RE-1370-N001,DIXON ST PLAYGROUND & HALF COURT,12699,BUBBLER/DRINKING FOUNTAIN,BUBBLER & 2 TAPS,-27.478,152.996,499561,6960620,200474766
PADDINGTON,TOOWONG,D0471,TOOWONG MEMORIAL PARK,B-RE-1370-N010,SYLVAN RD MEMORIAL & AVENUE OF PALMS,178415,BUBBLER/DRINKING FOUNTAIN,BUBBLER & TAP,-27.4812,152.994,499400,6960260,200559241
PADDINGTON,TOOWONG,D0471,TOOWONG MEMORIAL PARK,B-RE-1370-N011,SYLVAN RD PLAYGROUND & HALF COURT,177920,BUBBLER/DRINKING FOUNTAIN,BUBBLER & TAP,-27.4806,152.992,499216,6960330,200559142
WALTER TAYLOR,TOOWONG,D0467,ANZAC PARK,B-RE-1373-N001,BALANCE OF PARK,44965,BUBBLER/DRINKING FOUNTAIN,BUBBLER 2 TAPS & DOG BOWL,-27.4799,152.977,497753,6960410,200487699
WALTER TAYLOR,TOOWONG,D0467,ANZAC PARK,B-RE-1373-N001,BALANCE OF PARK,176720,BUBBLER/DRINKING FOUNTAIN,BUBBLER & 2 TAPS,-27.4805,152.982,498220,6960340,200558356
WALTER TAYLOR,TOOWONG,D0467,ANZAC PARK,B-RE-1373-N001,BALANCE OF PARK,176723,BUBBLER/DRINKING FOUNTAIN,BUBBLER & 2 TAPS,-27.4797,152.982,498234,6960430,200558359
WALTER TAYLOR,TOOWONG,D0467,ANZAC PARK,B-RE-1373-N003,ANZAC PK PLAYGROUND,32135,BUBBLER/DRINKING FOUNTAIN,BUBBLER 2 TAPS & DOG BOWL,-27.4805,152.977,497714,6960340,200481630
WALTER TAYLOR,TOOWONG,D0467,ANZAC PARK,B-RE-1373-N005,ANZAC PK DOG OFF LEASH AREA,29837,BUBBLER/DRINKING FOUNTAIN,BUBBLER & TAP,-27.4792,152.98,497983,6960490,200480513
WALTER TAYLOR,TOOWONG,D0467,ANZAC PARK,B-RE-1373-N005,ANZAC PK DOG OFF LEASH AREA,176708,BUBBLER/DRINKING FOUNTAIN,"BUBBLER, TAP & DOG BOWL",-27.4803,152.977,497733,6960370,200558344
PADDINGTON,BARDON,D0466,NORMAN BUCHAN PARK,B-RE-1374-N001,BAROONA RD PICNIC AREA,5891,BUBBLER/DRINKING FOUNTAIN,BUBBLER & TAP,-27.4654,152.99,498974,6962010,200472379
PADDINGTON,BARDON,D0466,NORMAN BUCHAN PARK,B-RE-1374-N004,RAINWORTH RD PLAYGROUND,42990,BUBBLER/DRINKING FOUNTAIN,BUBBLER & TAP,-27.4662,152.989,498932,6961930,200486807
PADDINGTON,MILTON,D0477,MILTON PARK,B-RE-1375-N002,MILTON PK PICNIC AREA,42986,BUBBLER/DRINKING FOUNTAIN,BUBBLER/DRINKING FOUNTAIN,-27.4707,153.001,500104,6961430,200486806
PADDINGTON,MILTON,D0477,MILTON PARK,B-RE-1375-N006,MILTON PK DOG OFF LEASH AREA,30673,BUBBLER/DRINKING FOUNTAIN,"BUBBLER, TAP & DOG BOWL",-27.4713,153.001,500109,6961370,200480850
PADDINGTON,MILTON,D0477,MILTON PARK,B-RE-1375-N006,MILTON PK DOG OFF LEASH AREA,175061,BUBBLER/DRINKING FOUNTAIN,"BUBBLER, TAP & DOG BOWL SMALL DOG END",-27.4715,153.001,500096,6961340,100108599
PADDINGTON,MILTON,D0477,MILTON PARK,B-RE-1375-N007,MILTON PK PLAYGROUND,110766,BUBBLER/DRINKING FOUNTAIN,BUBBLER/DRINKING FOUNTAIN,-27.4706,153.001,500099,6961440,100089110
PADDINGTON,MILTON,D0478,GREGORY PARK,B-RE-1376-N004,GREGORY PK PICNIC AREA,42941,BUBBLER/DRINKING FOUNTAIN,BUBBLER & TAP,-27.4662,152.999,499906,6961930,200486796
WALTER TAYLOR,TOOWONG,D0480,PERRIN PARK,B-RE-1378-N003,PERRIN PK PICNIC AREA,45040,BUBBLER/DRINKING FOUNTAIN,BUBBLER & TAP,-27.4913,152.992,499203,6959150,200487742
WALTER TAYLOR,TOOWONG,D0480,PERRIN PARK,B-RE-1378-N003,PERRIN PK PICNIC AREA,180883,BUBBLER/DRINKING FOUNTAIN,DISABLED ACCESS DRINKING FOUNTAIN,-27.4913,152.992,499209,6959150,200560598
WALTER TAYLOR,TOOWONG,D0480,PERRIN PARK,B-RE-1378-N005,HEROES AVE DOG OFF LEASH AREA,32125,BUBBLER/DRINKING FOUNTAIN,BUBBLER,-27.4912,152.991,499069,6959150,200481624
WALTER TAYLOR,TOOWONG,D0480,PERRIN PARK,B-RE-1378-N009,BALANCE OF PARK,17939,BUBBLER/DRINKING FOUNTAIN,BUBBLER & 2 TAPS,-27.4919,152.992,499217,6959080,200476628
WALTER TAYLOR,TARINGA,D0481,OAKMAN PARK,B-RE-1379-N003,OAKMAN PK PLAYGROUND,88192,BUBBLER/DRINKING FOUNTAIN,BUBBLER & 2 TAPS,-27.4883,152.985,498525,6959480,200508453
WALTER TAYLOR,TARINGA,D0481,OAKMAN PARK,B-RE-1379-N003,OAKMAN PK PLAYGROUND,200508453,BUBBLER/DRINKING FOUNTAIN,BUBBLER & 2 TAPS,-27.4884,152.985,498523,6959470,200508453
WALTER TAYLOR,TOOWONG,D0483,WESTBROOK PARK,B-RE-1381-N002,WESTBROOK PK PICNIC AREA,166240,BUBBLER/DRINKING FOUNTAIN,BUBBLER & 2 TAPS,-27.4868,152.977,497736,6959650,200551644
ENOGGERA,WILSTON,D0486,LANGLEY AVENUE PARK,B-RE-1384-N001,LANGLEY AVE SHARED PATHWAY,45962,BUBBLER/DRINKING FOUNTAIN,BUBBLER & 2 TAPS,-27.4406,153.016,501601,6964760,200488309
ENOGGERA,WILSTON,D0486,LANGLEY AVENUE PARK,B-RE-1384-N001,LANGLEY AVE SHARED PATHWAY,45963,BUBBLER/DRINKING FOUNTAIN,BUBBLER & 2 TAPS,-27.4412,153.02,501931,6964700,200488310
NORTHGATE,NUNDAH,D0464,ALBERT BISHOP PARK,B-RE-1386-N001,HEDLEY AVE DOG OFF LEASH AREA,45720,BUBBLER/DRINKING FOUNTAIN,"BUBBLER, TAP & DOG BOWL",-27.404,153.068,506761,6968820,200488190
NORTHGATE,NUNDAH,D0464,ALBERT BISHOP PARK,B-RE-1386-N001,HEDLEY AVE DOG OFF LEASH AREA,45721,BUBBLER/DRINKING FOUNTAIN,"BUBBLER, TAP & DOG BOWL",-27.4073,153.067,506667,6968450,200488191
NORTHGATE,NUNDAH,D0464,ALBERT BISHOP PARK,B-RE-1386-N001,HEDLEY AVE DOG OFF LEASH AREA,45900,BUBBLER/DRINKING FOUNTAIN,"BUBBLER, TAP & DOG BOWL",-27.4049,153.067,506658,6968710,200488278
NORTHGATE,NUNDAH,D0464,ALBERT BISHOP PARK,B-RE-1386-N002,NORTHERN SUBURBS RUGBY LEAGUE FACILITY,43403,BUBBLER/DRINKING FOUNTAIN,BUBBLER & TAP,-27.404,153.069,506856,6968820,200486961
NORTHGATE,NUNDAH,D0464,ALBERT BISHOP PARK,B-RE-1386-N006,NUNDAH CRITERIUM CIRCUIT,52050,BUBBLER/DRINKING FOUNTAIN,BUBBLER/DRINKING FOUNTAIN,-27.409,153.07,506885,6968260,200570241
NORTHGATE,NUNDAH,D0464,ALBERT BISHOP PARK,B-RE-1386-N010,VIRGINIA UNITED SOCCER FACILITY,157235,BUBBLER/DRINKING FOUNTAIN,BUBBLER & TAP,-27.4051,153.072,507131,6968700,200548463
NORTHGATE,NUNDAH,D0464,ALBERT BISHOP PARK,B-RE-1386-N011,LEAGUES CLUB PLAYGROUND,5824,BUBBLER/DRINKING FOUNTAIN,DRINKING FOUNTAIN,-27.405,153.071,507054,6968700,200472353
NORTHGATE,NUNDAH,D0464,ALBERT BISHOP PARK,B-RE-1386-N016,GERMAN STATION PLAYGROUND (OPP HOWS RD),43375,BUBBLER/DRINKING FOUNTAIN,BUBBLER,-27.4059,153.071,507037,6968610,200486947
HAMILTON,KALINGA,D0463,KALINGA PARK,B-RE-1387-N002,BRISBANE PETANQUE CLUB,189346,BUBBLER/DRINKING FOUNTAIN,BUBBLER & 2 TAPS,-27.4079,153.052,505172,6968390,200567279
HAMILTON,KALINGA,D0463,KALINGA PARK,B-RE-1387-N002,BRISBANE PETANQUE CLUB,189370,BUBBLER/DRINKING FOUNTAIN,BUBBLER 2 TAPS & DOG BOWL,-27.4075,153.052,505148,6968430,200567303
HAMILTON,KALINGA,D0463,KALINGA PARK,B-RE-1387-N007,KALINGA ST CIRCUIT PATHWAY NETWORK,189386,BUBBLER/DRINKING FOUNTAIN,BUBBLER & TAP,-27.4097,153.055,505406,6968190,200567315
HAMILTON,KALINGA,D0463,KALINGA PARK,B-RE-1387-N009,THE VINES PLAYGROUND PICNIC AREA,45778,BUBBLER/DRINKING FOUNTAIN,BUBBLER & 2 TAPS,-27.4059,153.052,505109,6968600,200488220
HAMILTON,KALINGA,D0463,KALINGA PARK,B-RE-1387-N012,BERTHA ST DOG OFF LEASH AREA,193307,BUBBLER/DRINKING FOUNTAIN,BUBBLER TAP & BOWL,-27.4062,153.051,505020,6968580,200570400
HAMILTON,KALINGA,D0463,KALINGA PARK,B-RE-1387-N015,PARK AVE & DIGGERS DR ACCESS & CAR PARK,5750,BUBBLER/DRINKING FOUNTAIN,BUBBLER/DRINKING FOUNTAIN,-27.4077,153.052,505122,6968410,200472335
HAMILTON,KALINGA,D0463,KALINGA PARK,B-RE-1387-N015,PARK AVE & DIGGERS DR ACCESS & CAR PARK,189445,BUBBLER/DRINKING FOUNTAIN,BUBBLER & 2 TAPS,-27.4083,153.054,505377,6968340,200567374
HAMILTON,KALINGA,D0463,KALINGA PARK,B-RE-1387-N015,PARK AVE & DIGGERS DR ACCESS & CAR PARK,189459,BUBBLER/DRINKING FOUNTAIN,BUBBLER & 2 TAPS,-27.4072,153.053,505227,6968460,200567388
HAMILTON,KALINGA,D0463,KALINGA PARK,B-RE-1387-N016,KALINGA ST CRICKET FIELDS,189430,BUBBLER/DRINKING FOUNTAIN,BUBBLER & 2 TAPS,-27.409,153.055,505468,6968260,200567359
HAMILTON,KALINGA,D0463,KALINGA PARK,B-RE-1387-N017,KALINGA PK 'THE VINES' METROPOLITAN PLAYGROUND,45777,BUBBLER/DRINKING FOUNTAIN,BUBBLER/DRINKING FOUNTAIN,-27.406,153.051,505077,6968600,200488219
HAMILTON,KALINGA,D0463,KALINGA PARK,B-RE-1387-N018,LEWIS ST PICNIC AREA,189762,BUBBLER/DRINKING FOUNTAIN,"BUBBLER, TAP & DOG BOWL",-27.4106,153.055,505411,6968090,200567672
HAMILTON,KALINGA,D0463,KALINGA PARK,B-RE-1387-N020,BERTHA ST SPORTING FIELD,189466,BUBBLER/DRINKING FOUNTAIN,BUBBLER & TAP,-27.4072,153.05,504953,6968460,200567395
NORTHGATE,NUNDAH,D0461,TOOMBUL TERRACE PARK,B-RE-1388-N001,KEDRON BROOK PATH & BIKEWAY NETWORK,190997,BUBBLER/DRINKING FOUNTAIN,BUBBLER & TAP,-27.4047,153.051,505072,6968730,200568679
NORTHGATE,NUNDAH,D0461,TOOMBUL TERRACE PARK,B-RE-1388-N002,BALANCE OF PARK,191056,BUBBLER/DRINKING FOUNTAIN,BUBBLER & 2 TAPS,-27.4074,153.054,505387,6968440,200568738
NORTHGATE,NUNDAH,D0461,TOOMBUL TERRACE PARK,B-RE-1388-N003,TOOMBUL TERRACE PK PICNIC AREA,191064,BUBBLER/DRINKING FOUNTAIN,BUBBLER & TAP,-27.406,153.052,505180,6968600,200568746
NORTHGATE,NUNDAH,D0460,ROSS PARK,B-RE-1389-N002,ROSS PK PLAYGROUND,43831,BUBBLER/DRINKING FOUNTAIN,BUBBLER &  2 TAPS,-27.4086,153.059,505833,6968310,200487125
NORTHGATE,NUNDAH,D0460,ROSS PARK,B-RE-1389-N004,ROSS PK SHARED PATHWAY,189969,BUBBLER/DRINKING FOUNTAIN,BUBBLER & 2 TAPS,-27.4093,153.059,505821,6968230,200567819
NORTHGATE,NORTHGATE,D0457,PROGRESS PARK,B-RE-1391-N004,BALANCE OF PARK,22822,BUBBLER/DRINKING FOUNTAIN,BUBBLER & 2 TAPS,-27.39,153.078,507687,6970370,200478297
NORTHGATE,NORTHGATE,D0457,PROGRESS PARK,B-RE-1391-N004,BALANCE OF PARK,100118353,BUBBLER/DRINKING FOUNTAIN,TAP & BUBBLER SYSTEM,-27.3905,153.078,507704,6970310,100118353
NORTHGATE,NUNDAH,D0454,OXENHAM PARK,B-RE-1393-N006,JACK MURRAY PLACE PICNIC AREA,196162,BUBBLER/DRINKING FOUNTAIN,TAP & BUBBLER SYSTEM,-27.4005,153.063,506191,6969210,100252233
NORTHGATE,NORTHGATE,D0452,NORTHGATE RESERVE,B-RE-1394-N001,CAMBAGE RD DOG OFF LEASH AREA,45733,BUBBLER/DRINKING FOUNTAIN,BUBBLER WITH DOG BOWL AND TAP,-27.3972,153.072,507138,6969560,200488202
NORTHGATE,NORTHGATE,D0452,NORTHGATE RESERVE,B-RE-1394-N001,CAMBAGE RD DOG OFF LEASH AREA,121617,BUBBLER/DRINKING FOUNTAIN,BUBBLER & TAP,-27.3969,153.073,507173,6969600,200526734
NORTHGATE,NUNDAH,D0450,NUNDAH MEMORIAL PARK,B-RE-1396-N002,NUNDAH MEMORIAL PRECINCT,126835,BUBBLER/DRINKING FOUNTAIN,DRINKING FOUNTAIN,-27.4031,153.059,505823,6968920,100105393
NORTHGATE,NUNDAH,D0449,BOYD PARK,B-RE-1397-N011,BOYD PK DOG OFF LEASH AREA,167406,BUBBLER/DRINKING FOUNTAIN,BUBBLER 2 TAPS & DOG BOWL,-27.4008,153.056,505544,6969170,200552415
NORTHGATE,NUNDAH,D0449,BOYD PARK,B-RE-1397-N012,BOYD PK CIRCUIT PATHWAY,50270,BUBBLER/DRINKING FOUNTAIN,BUBBLER & TAP,-27.4003,153.056,505558,6969220,200488955
NORTHGATE,NUNDAH,D0449,BOYD PARK,B-RE-1397-N014,BALANCE OF PARK,17455,BUBBLER/DRINKING FOUNTAIN,BUBBLER & 2 TAPS,-27.4016,153.057,505684,6969080,200476434
NORTHGATE,NUDGEE,D0448,NUDGEE WATERHOLE RESERVE,B-RE-1398-N007,NUDGEE RD PICNIC AREA,17431,BUBBLER/DRINKING FOUNTAIN,BUBBLER & TAP,-27.3741,153.096,509476,6972130,200476425
NORTHGATE,NUDGEE,D0448,NUDGEE WATERHOLE RESERVE,B-RE-1398-N009,NUDGEE WATERHOLE (NUDGEE RD) DOG OFF LEASH AREA,194372,BUBBLER/DRINKING FOUNTAIN,TAP AND BUBBLER SYSTEM,-27.3762,153.094,509282,6971890,100108161
NORTHGATE,BANYO,D0444,BANYO MEMORIAL PARK,B-RE-1401-N001,BANYO MEMORIAL PK SKATE FACILITY,17366,BUBBLER/DRINKING FOUNTAIN,BUBBLER & TAP,-27.374,153.078,507750,6972140,200476399
NORTHGATE,VIRGINIA,D0443,DOWNFALL CREEK RESERVE,B-RE-1402-N006,JEFFERIS ST PICNIC AREA,50679,BUBBLER/DRINKING FOUNTAIN,TAP & BUBBLER SYSTEM,-27.3832,153.06,505890,6971120,100117736
DOBOY,TINGALPA,D0594,PORTER'S PADDOCK PARK,B-RE-1408-N007,MINNIPPI PARKLANDS SHARED PATHWAY CIRCUIT & CANOE RAMP,16356,BUBBLER/DRINKING FOUNTAIN,BUBBLER & 2 TAPS,-27.4825,153.114,511263,6960120,200476046
DOBOY,TINGALPA,D0594,PORTER'S PADDOCK PARK,B-RE-1408-N007,MINNIPPI PARKLANDS SHARED PATHWAY CIRCUIT & CANOE RAMP,176116,BUBBLER/DRINKING FOUNTAIN,BUBBLER 2 TAPS & DOG BOWL,-27.4829,153.115,511353,6960080,200557899
DOBOY,TINGALPA,D0594,PORTER'S PADDOCK PARK,B-RE-1408-N014,MINNIPPI PARKLANDS NTH RIDGE PICNIC AREA,176123,BUBBLER/DRINKING FOUNTAIN,BUBBLER & 2 TAPS,-27.4825,153.113,511191,6960110,200557905
DOBOY,TINGALPA,D0594,PORTER'S PADDOCK PARK,B-RE-1408-N015,PORTERS PADDOCK ENTRANCE RD PICNIC AREA,43269,BUBBLER/DRINKING FOUNTAIN,BUBBLER & TAP,-27.482,153.115,511315,6960170,200486865
MOOROOKA,NATHAN,D0545,TOOHEY FOREST PARK,B-RE-1416-N001,JAMES & MARY MAYNE ESTATE,35104,BUBBLER/DRINKING FOUNTAIN,BUBBLER 2 TAPS & DOG BOWL,-27.5408,153.035,503482,6953670,200482712
MOOROOKA,NATHAN,D0545,TOOHEY FOREST PARK,B-RE-1416-N012,TOOHEY FOREST CON PK TO TOOHEY RIDGE,30979,BUBBLER/DRINKING FOUNTAIN,BUBBLER & TAP,-27.5372,153.053,505255,6954060,200481007
MOOROOKA,NATHAN,D0545,TOOHEY FOREST PARK,B-RE-1416-N015,TOOHEY PICNIC AREA,42207,BUBBLER/DRINKING FOUNTAIN,"BUBBLER, TAP & DOG BOWL",-27.5371,153.042,504148,6954080,200486484
MOOROOKA,MOOROOKA,D0542,ALEXANDER PARK,B-RE-1418-N003,BALANCE OF PARK,85390,BUBBLER/DRINKING FOUNTAIN,BUBBLER & TAP,-27.5388,153.025,502435,6953890,200507368
MOOROOKA,MOOROOKA,D0540,VETERANS PARK,B-RE-1419-N002,VETERANS PK PLAYGROUND,10610,BUBBLER/DRINKING FOUNTAIN,BUBBLER,-27.54,153.017,501665,6953760,200474005
MOOROOKA,MOOROOKA,D0539,MURIEL AVENUE PARK,B-RE-1420-N003,PETER SCOTT SKATE PK & JR BMX FACILITY,179944,BUBBLER/DRINKING FOUNTAIN,BUBBLER,-27.5431,153.015,501468,6953410,200560205
WYNNUM MANLY,LOTA,D0536,HERBERT STREET PARK,B-RE-1422-N004,CLIFTON ST PICNIC AREA,45609,BUBBLER/DRINKING FOUNTAIN,BUBBLER & TAPS,-27.4701,153.177,517500,6961480,200488121
WYNNUM MANLY,LOTA,D0532,ED DEVENPORT ROTARY PARK,B-RE-1425-N007,BALANCE OF PARK,24976,BUBBLER/DRINKING FOUNTAIN,BUBBLER & TAP,-27.469,153.189,518708,6961610,200478973
WYNNUM MANLY,LOTA,D0530,LOTA CAMPING RESERVE,B-RE-1426-N001,LOTA CAMPING RES SHARED PATHWAY,3463,BUBBLER/DRINKING FOUNTAIN,BUBBLER & TAP,-27.4659,153.193,519022,6961950,200471554
WYNNUM MANLY,LOTA,D0530,LOTA CAMPING RESERVE,B-RE-1426-N001,LOTA CAMPING RES SHARED PATHWAY,180690,BUBBLER/DRINKING FOUNTAIN,BUBBLER/DRINKING FOUNTAIN,-27.4653,153.192,519011,6962010,200560504
WYNNUM MANLY,LOTA,D0530,LOTA CAMPING RESERVE,B-RE-1426-N006,LOTA CAMPING RES (ALEXANDER ST) PICNIC AREA,81245,BUBBLER/DRINKING FOUNTAIN,BUBBLER & 2 TAPS,-27.4675,153.193,519070,6961760,200504894
WYNNUM MANLY,LOTA,D0530,LOTA CAMPING RESERVE,B-RE-1426-N007,LOTA CAMPING RES DISTRICT PLAYGROUND,180691,BUBBLER/DRINKING FOUNTAIN,BUBBLER/DRINKING FOUNTAIN,-27.467,153.192,518991,6961830,200560505
WYNNUM MANLY,LOTA,D0530,LOTA CAMPING RESERVE,B-RE-1426-N010,LOTA CAMPING RES (PLAYGROUND) PICNIC AREA,180692,BUBBLER/DRINKING FOUNTAIN,BUBBLER/DRINKING FOUNTAIN,-27.4666,153.192,518986,6961870,200560506
WYNNUM MANLY,MANLY WEST,D0529,HEERS PARK,B-RE-1427-N002,HEERS PK PLAYGROUND,20926,BUBBLER/DRINKING FOUNTAIN,BUBBLER & TAP,-27.4623,153.161,515934,6962340,200477628
WYNNUM MANLY,MANLY WEST,D0528,STANNARD ROAD PARK,B-RE-1428-N004,STANNARD RD DOG OFF LEASH AREA,32130,BUBBLER/DRINKING FOUNTAIN,"BUBBLER, TAP & DOG BOWL",-27.4611,153.169,516663,6962480,200481627
WYNNUM MANLY,MANLY,D0525,RICHARD RUSSELL PARK,B-RE-1431-N003,MANLY WAR MEMORIAL,136253,BUBBLER/DRINKING FOUNTAIN,WATER FOUNTAIN WITH MTCE TAP,-27.4553,153.183,518085,6963120,100108227
WYNNUM MANLY,WYNNUM,D0524,WYNNUM MEMORIAL PARK,B-RE-1432-N004,MUDDIES CRICKET & RECREATION CLUB FACILITY,188283,BUBBLER/DRINKING FOUNTAIN,BUBBLER & TAP,-27.4535,153.174,517222,6963320,200566354
WYNNUM MANLY,WYNNUM,D0523,MORETON BAY LIONS PARK,B-RE-1433-N002,REG COSSARD PLAYGROUND,178915,BUBBLER/DRINKING FOUNTAIN,BUBBLER & 2 TAPS,-27.4518,153.17,516760,6963520,200559578
MARCHANT,GRANGE,D0500,EMERSON PARK,B-RE-1435-N005,VALLEY'S RUGBY FIELD (BEGA ST),168735,BUBBLER/DRINKING FOUNTAIN,BUBBLER & 2 TAPS,-27.4197,153.018,501740,6967080,200553391
MARCHANT,GRANGE,D0500,EMERSON PARK,B-RE-1435-N006,FORTITUDE VALLEY RUGBY LEAGUE FACILITY,40856,BUBBLER/DRINKING FOUNTAIN,BUBBLER & 2 TAPS,-27.4188,153.018,501763,6967180,200485850
MARCHANT,GRANGE,D0499,GRANGE FOREST PARK,B-RE-1436-N001,MORNINGTON ST PLAYGROUND,36794,BUBBLER/DRINKING FOUNTAIN,BUBBLER & TAP,-27.4165,153.009,500849,6967430,200483650
MARCHANT,GRANGE,D0499,GRANGE FOREST PARK,B-RE-1436-N002,MORNINGTON ST DOG OFF LEASH AREA,30796,BUBBLER/DRINKING FOUNTAIN,BUBBLER 2 TAPS DOG BOWL,-27.4152,153.009,500937,6967580,200480913
MARCHANT,GRANGE,D0499,GRANGE FOREST PARK,B-RE-1436-N002,MORNINGTON ST DOG OFF LEASH AREA,31867,BUBBLER/DRINKING FOUNTAIN,BUBBLER 2 TAP DOG BOWL,-27.4146,153.009,500918,6967650,200481519
MARCHANT,GRANGE,D0499,GRANGE FOREST PARK,B-RE-1436-N008,GRANGE FOREST BUSHLAND,191080,BUBBLER/DRINKING FOUNTAIN,BUBBLER & TAP,-27.4199,153.013,501250,6967060,200568762
ENOGGERA,WINDSOR,D0497,HINKLER PARK,B-RE-1437-N002,HINKLER PK PICNIC AREA,188676,BUBBLER/DRINKING FOUNTAIN,BUBBLER & 2 TAPS,-27.4319,153.024,502357,6965730,200566698
ENOGGERA,WILSTON,D0493,WILSTON RECREATION RESERVE,B-RE-1441-N004,WILSTON REC RES PLAYGROUND,90511,BUBBLER/DRINKING FOUNTAIN,BUBBLER & 2 TAPS,-27.4408,153.012,501184,6964740,200509575
ENOGGERA,WILSTON,D0493,WILSTON RECREATION RESERVE,B-RE-1441-N005,BRIS CITY JR SOCCER CLUB FACILITY,23299,BUBBLER/DRINKING FOUNTAIN,BUBBLER & TAP,-27.4408,153.013,501287,6964740,200478476
ENOGGERA,WINDSOR,D0492,DOWNEY PARK,B-RE-1442-N001,GREEN TCE PICNIC AREA,23261,BUBBLER/DRINKING FOUNTAIN,BUBBLER & TAP,-27.4415,153.025,502487,6964660,200478468
ENOGGERA,WINDSOR,D0492,DOWNEY PARK,B-RE-1442-N008,BRISBANE WOMENS HOCKEY CENTRE,71018,BUBBLER/DRINKING FOUNTAIN,BUBBLER WITH DOG/BIRD DRINKING TROUGH,-27.4409,153.025,502461,6964730,200501530
ENOGGERA,WINDSOR,D0492,DOWNEY PARK,B-RE-1442-N008,BRISBANE WOMENS HOCKEY CENTRE,176993,BUBBLER/DRINKING FOUNTAIN,BUBBLER & TAP,-27.4399,153.025,502491,6964840,200558553
ENOGGERA,WINDSOR,D0492,DOWNEY PARK,B-RE-1442-N008,BRISBANE WOMENS HOCKEY CENTRE,177052,BUBBLER/DRINKING FOUNTAIN,BUBBLER & TAP,-27.4393,153.023,502234,6964900,200558600
ENOGGERA,WINDSOR,D0492,DOWNEY PARK,B-RE-1442-N008,BRISBANE WOMENS HOCKEY CENTRE,177058,BUBBLER/DRINKING FOUNTAIN,BUBBLER & TAP,-27.4399,153.022,502221,6964840,200558606
ENOGGERA,WINDSOR,D0492,DOWNEY PARK,B-RE-1442-N008,BRISBANE WOMENS HOCKEY CENTRE,177059,BUBBLER/DRINKING FOUNTAIN,BUBBLER & TAP,-27.4405,153.022,502206,6964770,200558607
ENOGGERA,WINDSOR,D0492,DOWNEY PARK,B-RE-1442-N008,BRISBANE WOMENS HOCKEY CENTRE,177069,BUBBLER/DRINKING FOUNTAIN,BUBBLER & TAP,-27.4397,153.024,502338,6964860,200558616
ENOGGERA,WINDSOR,D0492,DOWNEY PARK,B-RE-1442-N013,DOWNEY PK SHARED PATHWAY,177128,BUBBLER/DRINKING FOUNTAIN,BUBBLER & TAP,-27.4419,153.023,502246,6964620,200558675
ENOGGERA,NEWMARKET,D0487,MCCOOK PARK,B-RE-1446-N001,MCCOOK PK SPORTING FACILITY,18138,BUBBLER/DRINKING FOUNTAIN,BUBBLER & TAP,-27.4372,153.014,501335,6965140,200476694
NORTHGATE,NUDGEE BEACH,D0438,NUDGEE BEACH RESERVE,B-RE-1447-N008,NUDGEE BEACH (FORTITUDE ST) PICNIC AREA,116357,BUBBLER/DRINKING FOUNTAIN,BUBBLER & 2 TAPS,-27.3446,153.103,510149,6975390,200522976
NORTHGATE,NUDGEE BEACH,D0438,NUDGEE BEACH RESERVE,B-RE-1447-N009,NUDGEE BEACH (CHASELEY ST) PICNIC AREA,116360,BUBBLER/DRINKING FOUNTAIN,BUBBLER & 2 TAPS,-27.3453,153.104,510269,6975320,200522978
NORTHGATE,NUDGEE BEACH,D0438,NUDGEE BEACH RESERVE,B-RE-1447-N010,FORTITUDE ST ACCESS & CAR PARKING,116244,BUBBLER/DRINKING FOUNTAIN,BUBBLER & TAP,-27.3439,153.101,509993,6975470,200522869
NORTHGATE,NUDGEE BEACH,D0438,NUDGEE BEACH RESERVE,B-RE-1447-N010,FORTITUDE ST ACCESS & CAR PARKING,116354,BUBBLER/DRINKING FOUNTAIN,BUBBLER/DRINKING FOUNTAIN,-27.3436,153.101,509952,6975500,200522973
COORPAROO,GREENSLOPES,D0393,EKIBIN PARK EAST,B-RE-1449-N001,VICTORIA TCE CAR PARK,39697,BUBBLER/DRINKING FOUNTAIN,BUBBLER & 2 TAPS,-27.5074,153.041,504095,6957360,200485211
COORPAROO,GREENSLOPES,D0393,EKIBIN PARK EAST,B-RE-1449-N011,VICTORIA TCE DOG OFF LEASH AREA,196384,BUBBLER/DRINKING FOUNTAIN,BUBBLER & TAP WITH BOWL,-27.5078,153.041,504041,6957320,200485211
COORPAROO,GREENSLOPES,D0392,THOMPSON ESTATE RESERVE,B-RE-1450-N004,BALANCE OF PARK,118641,BUBBLER/DRINKING FOUNTAIN,BUBBLER & TAP,-27.5053,153.043,504271,6957600,200524267
TENNYSON,ANNERLEY,D0390,CLIFTON HILL PEACE PARK,B-RE-1452-N001,CLIFTON HILL PEACE PK HALF COURT & NETBALL HOOP,109175,BUBBLER/DRINKING FOUNTAIN,BUBBLER & TAP,-27.523,153.03,503009,6955640,200517826
TENNYSON,ANNERLEY,D0390,CLIFTON HILL PEACE PARK,B-RE-1452-N005,CLIFTON HILL PEACE PK PICNIC AREA,8728,BUBBLER/DRINKING FOUNTAIN,BUBBLER & TAP,-27.5235,153.031,503076,6955580,200473283
TENNYSON,YERONGA,D0389,YERONGA MEMORIAL PARK,B-RE-1453-N003,HONOUR AVE PLAYGROUND,2524,BUBBLER/DRINKING FOUNTAIN,BUBBLER & 2 TAPS,-27.5184,153.022,502195,6956150,200471211
TENNYSON,YERONGA,D0389,YERONGA MEMORIAL PARK,B-RE-1453-N003,HONOUR AVE PLAYGROUND,171170,BUBBLER/DRINKING FOUNTAIN,BUBBLER,-27.5181,153.022,502144,6956180,200554891
TENNYSON,YERONGA,D0389,YERONGA MEMORIAL PARK,B-RE-1453-N008,SCHOOL RD PICNIC AREA,171144,BUBBLER/DRINKING FOUNTAIN,BUBBLER & 2 TAPS,-27.5213,153.023,502231,6955830,200554875
TENNYSON,YERONGA,D0389,YERONGA MEMORIAL PARK,B-RE-1453-N018,HONOUR AVE DOG OFF LEASH AREA,39339,BUBBLER/DRINKING FOUNTAIN,BUBBLER & 2 TAPS,-27.5189,153.022,502209,6956090,200485022
TENNYSON,YERONGA,D0389,YERONGA MEMORIAL PARK,B-RE-1453-N020,YERONGA PARK POOL,175811,BUBBLER/DRINKING FOUNTAIN,BUBBLER & TAP,-27.5204,153.022,502219,6955920,200557794
TENNYSON,YERONGA,D0389,YERONGA MEMORIAL PARK,B-RE-1453-N027,SCHOOL RD PLAYGROUND,30882,BUBBLER/DRINKING FOUNTAIN,BUBBLER & TAP,-27.5182,153.021,502113,6956170,200480956
MOOROOKA,MOOROOKA,D0388,PEGG'S PARK,B-RE-1454-N004,BALANCE OF PARK,85632,BUBBLER/DRINKING FOUNTAIN,BUBBLER & 2 TAPS,-27.5321,153.031,503056,6954630,200507538
MOOROOKA,MOOROOKA,D0388,PEGG'S PARK,B-RE-1454-N005,PEGG'S PK PLAYGROUND,85607,BUBBLER/DRINKING FOUNTAIN,BUBBLER & 2 TAPS,-27.5323,153.032,503114,6954600,200507518
MOOROOKA,MOOROOKA,D0387,KOALA PARK,B-RE-1455-N002,KOALA PK COMMUNITY GARDEN,85657,BUBBLER/DRINKING FOUNTAIN,DIABLED ACCESS BUBBLER,-27.5305,153.028,502806,6954810,200507549
MOOROOKA,MOOROOKA,D0386,MOOLABIN PARK,B-RE-1456-N001,MOOLABIN PK SHARED PATHWAY,42137,BUBBLER/DRINKING FOUNTAIN,BUBBLER & 2 TAPS,-27.5284,153.026,502519,6955040,200507438
MOOROOKA,MOOROOKA,D0385,POINCIANA PARK,B-RE-1457-N003,POINCIANA PK PLAYGROUND,85454,BUBBLER/DRINKING FOUNTAIN,BUBBLER & 2 TAPS,-27.525,153.024,502346,6955420,200507411
MOOROOKA,MOOROOKA,D0384,STIMPSON PARK,B-RE-1458-N002,BALANCE OF PARK,2319,BUBBLER/DRINKING FOUNTAIN,DRINKING FOUNTAIN,-27.5255,153.023,502255,6955360,200471119
MOOROOKA,MOOROOKA,D0384,STIMPSON PARK,B-RE-1458-N002,BALANCE OF PARK,35658,BUBBLER/DRINKING FOUNTAIN,BUBBLER & TAP,-27.5255,153.023,502240,6955350,200483014
TENNYSON,YEERONGPILLY,D0383,MOOROOKA LIONS BICENT. PICNIC GRND PARK,B-RE-1459-N001,GOW ST PICNIC AREA,36938,BUBBLER/DRINKING FOUNTAIN,BUBBLER & 2 TAPS,-27.5263,153.021,502067,6955270,200483719
TENNYSON,YERONGA,D0382,ROWLINSON PARK,B-RE-1460-N002,BALANCE OF PARK,46627,BUBBLER/DRINKING FOUNTAIN,BUBBLER & 2 TAPS,-27.5201,153.014,501382,6955950,200488365
TENNYSON,YERONGA,D0379,HYDE ROAD PARK,B-RE-1463-N005,VENNER RD DOG OFF LEASH AREA,29925,BUBBLER/DRINKING FOUNTAIN,BUBBLER & 2 TAPS,-27.5124,153.016,501557,6956810,200480558
TENNYSON,YERONGA,D0379,HYDE ROAD PARK,B-RE-1463-N005,VENNER RD DOG OFF LEASH AREA,170962,BUBBLER/DRINKING FOUNTAIN,"BUBBLER, TAP & DOG BOWL",-27.5121,153.015,501512,6956840,200554742
TENNYSON,YERONGA,D0378,FEHLBERG PARK,B-RE-1464-N001,BALANCE OF PARK,19840,BUBBLER/DRINKING FOUNTAIN,BUBBLER & 2 TAPS,-27.5112,153.019,501897,6956950,200477242
TENNYSON,YERONGA,D0378,FEHLBERG PARK,B-RE-1464-N001,BALANCE OF PARK,30659,BUBBLER/DRINKING FOUNTAIN,BUBBLER & TAP,-27.5115,153.019,501848,6956910,200480841
TENNYSON,FAIRFIELD,D0377,NORM ROSE PARK,B-RE-1465-N001,FAIRVIEW ST ACTIVITY SPACE,19819,BUBBLER/DRINKING FOUNTAIN,BUBBLER & TAP,-27.5074,153.026,502545,6957360,200477230
TENNYSON,FAIRFIELD,D0375,FAIRFIELD PARK,B-RE-1467-N005,BALANCE OF PARK,19774,BUBBLER/DRINKING FOUNTAIN,BUBBLER & 2 TAPS,-27.5034,153.026,502603,6957800,200477212
TENNYSON,YERONGA,D0374,LEYSHON PARK,B-RE-1468-N001,YERONGA FOOTBALL CLUB AUSSIE RULES FACILITY,171287,BUBBLER/DRINKING FOUNTAIN,BUBBLER & TAP,-27.5091,153.016,501600,6957170,200555002
TENNYSON,YERONGA,D0374,LEYSHON PARK,B-RE-1468-N001,YERONGA FOOTBALL CLUB AUSSIE RULES FACILITY,171291,BUBBLER/DRINKING FOUNTAIN,BUBBLER & TAP,-27.5091,153.016,501614,6957180,200555006
TENNYSON,YERONGA,D0374,LEYSHON PARK,B-RE-1468-N001,YERONGA FOOTBALL CLUB AUSSIE RULES FACILITY,171444,BUBBLER/DRINKING FOUNTAIN,BUBBLER,-27.5069,153.015,501497,6957410,200555139
TENNYSON,YERONGA,D0374,LEYSHON PARK,B-RE-1468-N002,WILLIAM PDE PLAYGROUND,171418,BUBBLER/DRINKING FOUNTAIN,BUBBLER & 2 TAPS,-27.5076,153.018,501754,6957350,200555116
TENNYSON,YERONGA,D0373,BRISBANE CORSO PARK,B-RE-1469-N001,BRISBANE CORSO PICNIC AREA (OPP TURNER AVE),177587,BUBBLER/DRINKING FOUNTAIN,BUBBLER & 2 TAPS,-27.5054,153.018,501785,6957590,200558937
TENNYSON,YERONGA,D0373,BRISBANE CORSO PARK,B-RE-1469-N002,BRISBANE CORSO BIKEWAY & PATH NETWORK,39221,BUBBLER/DRINKING FOUNTAIN,BUBBLER & 2 TAPS,-27.5057,153.012,501197,6957550,200484960
TENNYSON,YERONGA,D0373,BRISBANE CORSO PARK,B-RE-1469-N004,BRISBANE CORSO PICNIC AREA (OPP CANSDALE ST),27142,BUBBLER/DRINKING FOUNTAIN,BUBBLER & 2 TAPS,-27.5057,153.014,501360,6957550,200479537
TENNYSON,YERONGA,D0373,BRISBANE CORSO PARK,B-RE-1469-N004,BRISBANE CORSO PICNIC AREA (OPP CANSDALE ST),30643,BUBBLER/DRINKING FOUNTAIN,BUBBLER & 2 TAPS,-27.5057,153.013,501310,6957550,200480829
TENNYSON,YERONGA,D0373,BRISBANE CORSO PARK,B-RE-1469-N005,BALANCE OF PARK,178602,BUBBLER/DRINKING FOUNTAIN,BUBBLER & 2 TAPS,-27.5061,153.009,500907,6957510,200559392
TENNYSON,ANNERLEY,D0372,HEFFERAN PARK,B-RE-1470-N001,HEFFERAN PK PLAYGROUND,109329,BUBBLER/DRINKING FOUNTAIN,BUBBLER & 2 TAPS,-27.5006,153.029,502913,6958110,200517945
TENNYSON,FAIRFIELD,D0371,PRINCESS STREET PARK (NOS.5-21),B-RE-1471-N004,BRISBANE CORSO (PRINCESS ST)  PICNIC AREA,23970,BUBBLER/DRINKING FOUNTAIN,BUBBLER & 2 TAPS,-27.501,153.023,502281,6958080,200478682
THE GABBA,EAST BRISBANE,D0367,REAL PARK,B-RE-1475-N002,REAL PK DOG OFF LEASH AREA,30731,BUBBLER/DRINKING FOUNTAIN,BUBBLER 2 TAPS & DOG BOWL,-27.4804,153.049,504843,6960360,200480879
THE GABBA,EAST BRISBANE,D0367,REAL PARK,B-RE-1475-N003,REAL PK PLAYGROUND,30224,BUBBLER/DRINKING FOUNTAIN,BUBBLER & TAP,-27.4813,153.049,504810,6960260,200480645
THE GABBA,EAST BRISBANE,D0366,MOWBRAY PARK,B-RE-1476-N006,BALANCE OF PARK,169697,BUBBLER/DRINKING FOUNTAIN,BUBBLER & 2 TAPS,-27.4789,153.045,504401,6960520,200553990
THE GABBA,EAST BRISBANE,D0366,MOWBRAY PARK,B-RE-1476-N011,MOWBRAY PK SHARED PATHWAY & RIVERWALK,14135,BUBBLER/DRINKING FOUNTAIN,FOUNTAIN - DISABLED ACCESS,-27.4777,153.043,504236,6960660,200475259
THE GABBA,EAST BRISBANE,D0366,MOWBRAY PARK,B-RE-1476-N011,MOWBRAY PK SHARED PATHWAY & RIVERWALK,39595,BUBBLER/DRINKING FOUNTAIN,BUBBLER & 2 TAPS,-27.4783,153.044,504394,6960590,200485152
THE GABBA,EAST BRISBANE,D0365,WILLIAMINA PARK,B-RE-1477-N003,WILLIAMINA PK PICNIC AREA,14075,BUBBLER/DRINKING FOUNTAIN,BUBBLER & TAP,-27.4835,153.045,504493,6960020,200475240
COORPAROO,EAST BRISBANE,D0363,THE COMMON PARK,B-RE-1479-N002,THE COMMON SHARED PATHWAY NETWORK,43724,BUBBLER/DRINKING FOUNTAIN,BUBBLER & 2 TAPS,-27.4889,153.051,505086,6959410,200511994
COORPAROO,EAST BRISBANE,D0363,THE COMMON PARK,B-RE-1479-N005,COORPAROO SKATE FACILITY & HALF COURT,71398,BUBBLER/DRINKING FOUNTAIN,APOLLO 400 BUBBLER NEAR SKATE RAMP,-27.4893,153.052,505161,6959370,200501675
THE GABBA,WOOLLOONGABBA,D0362,WOOLLOONGABBA PLACE PARK,B-RE-1480-N001,BALANCE OF PARK,35336,BUBBLER/DRINKING FOUNTAIN,BUBBLER - DISABLED ACCESS,-27.4863,153.036,503600,6959700,200482828
THE GABBA,EAST BRISBANE,D0360,WOOLLOONGABBA ROTARY PARK,B-RE-1482-N001,WOOLLOONGABBA ROTARY PK DOG OFF LEASH AREA,30142,BUBBLER/DRINKING FOUNTAIN,BUBBLER & TAP,-27.4905,153.043,504230,6959240,200480623
THE GABBA,EAST BRISBANE,D0360,WOOLLOONGABBA ROTARY PARK,B-RE-1482-N005,WOOLLOONGABBA ROTARY PK PICNIC AREA,170232,BUBBLER/DRINKING FOUNTAIN,TAP COMBINATION,-27.4899,153.042,504170,6959300,200560042
COORPAROO,STONES CORNER,D0357,HANLON PARK,B-RE-1485-N003,STONES CORNER KINDERGARTEN,186078,BUBBLER/DRINKING FOUNTAIN,TAP COMBINATION,-27.5009,153.043,504226,6958080,200564436
COORPAROO,STONES CORNER,D0357,HANLON PARK,B-RE-1485-N003,STONES CORNER KINDERGARTEN,186079,BUBBLER/DRINKING FOUNTAIN,TAP COMBINATION,-27.5009,153.043,504228,6958090,200564437
COORPAROO,STONES CORNER,D0357,HANLON PARK,B-RE-1485-N003,STONES CORNER KINDERGARTEN,186087,BUBBLER/DRINKING FOUNTAIN,TAP COMBINATION,-27.5009,153.043,504253,6958080,200564440
COORPAROO,STONES CORNER,D0357,HANLON PARK,B-RE-1485-N005,HANLON PK SHARED PATHWAY,7526,BUBBLER/DRINKING FOUNTAIN,BUBBLER & TAP,-27.5006,153.043,504221,6958120,200472914
COORPAROO,STONES CORNER,D0357,HANLON PARK,B-RE-1485-N005,HANLON PK SHARED PATHWAY,48338,BUBBLER/DRINKING FOUNTAIN,BUBBLER 2 TAPS & DOG BOWL,-27.5014,153.043,504256,6958020,200488674
COORPAROO,STONES CORNER,D0357,HANLON PARK,B-RE-1485-N008,JUNCTION ST PLAYGROUND,43663,BUBBLER/DRINKING FOUNTAIN,BUBBLER & TAP,-27.4988,153.042,504139,6958320,200487091
THE GABBA,DUTTON PARK,D0356,GAIR PARK,B-RE-1486-N003,GAIR PK MEETING SPACE,85917,BUBBLER/DRINKING FOUNTAIN,BUBBLER & 2 TAPS,-27.4965,153.027,502709,6958570,200507712
THE GABBA,DUTTON PARK,D0355,DUTTON PARK,B-RE-1487-N004,HARMONY GDNS PLAYGROUND,29949,BUBBLER/DRINKING FOUNTAIN,BUBBLER & TAP,-27.496,153.025,502453,6958630,200480568
THE GABBA,DUTTON PARK,D0355,DUTTON PARK,B-RE-1487-N004,HARMONY GDNS PLAYGROUND,180785,BUBBLER/DRINKING FOUNTAIN,BUBBLER/DRINKING FOUNTAIN,-27.496,153.025,502458,6958620,200560550
THE GABBA,DUTTON PARK,D0355,DUTTON PARK,B-RE-1487-N005,GLADSTONE RD HALF COURT & VANTAGE POINT,36932,BUBBLER/DRINKING FOUNTAIN,BUBBLER & TAP,-27.4965,153.026,502526,6958580,200483713
THE GABBA,DUTTON PARK,D0355,DUTTON PARK,B-RE-1487-N006,GLADSTONE RD DOG OFF LEASH AREA,30770,BUBBLER/DRINKING FOUNTAIN,"BUBBLER, TAP & DOG BOWL",-27.4969,153.026,502564,6958530,200480897
THE GABBA,DUTTON PARK,D0355,DUTTON PARK,B-RE-1487-N010,BALANCE OF PARK,7417,BUBBLER/DRINKING FOUNTAIN,BUBBLER - DISABLED ACCESS,-27.4969,153.025,502513,6958530,200472872
THE GABBA,DUTTON PARK,D0355,DUTTON PARK,B-RE-1487-N012,TC DOYLE MEMORIAL PK DVE PICNIC AREA,108883,BUBBLER/DRINKING FOUNTAIN,FOUNTAIN & 2 TAPS,-27.4969,153.024,502414,6958520,200517730
THE GABBA,HIGHGATE HILL,D0354,HIGHGATE HILL PARK,B-RE-1488-N001,BALANCE OF PARK,7327,BUBBLER/DRINKING FOUNTAIN,BUBBLER,-27.487,153.017,501638,6959630,200472839
MACGREGOR,WISHART,D0435,BOORABBIN PICNIC GROUND,B-RE-1490-N004,STACKPOLE ST DOG OFF LEASH AREA,29859,BUBBLER/DRINKING FOUNTAIN,BUBBLER & TAP,-27.5529,153.111,510971,6952320,200480525
HAMILTON,WOOLOOWIN,D0512,MELROSE PARK,B-RE-1493-N004,MELROSE PK PLAYGROUND & BIKE TRAINING FACILITY,15066,BUBBLER/DRINKING FOUNTAIN,1 FOUNTAIN 1 TAP,-27.4134,153.045,504403,6967770,200526633
HAMILTON,WOOLOOWIN,D0512,MELROSE PARK,B-RE-1493-N009,MELROSE PK SHARED PATHWAY,47428,BUBBLER/DRINKING FOUNTAIN,BUBBLER & TAP,-27.4119,153.045,504487,6967950,200488484
MARCHANT,LUTWYCHE,D0509,BRADSHAW PARK,B-RE-1495-N005,BRADSHAW PK PICNIC AREA,9738,BUBBLER/DRINKING FOUNTAIN,DRINKING FOUNTAIN,-27.4197,153.032,503191,6967070,200473643
HAMILTON,WINDSOR,D0507,CLARK PARK,B-RE-1497-N003,WINDSOR SCHOOL OF ARTS,190056,BUBBLER/DRINKING FOUNTAIN,BUBBLER/DRINKING FOUNTAIN,-27.4269,153.032,503198,6966280,200567896
ENOGGERA,WINDSOR,D0506,WINDSOR MEMORIAL PARK,B-RE-1498-N002,BALANCE OF PARK,9676,BUBBLER/DRINKING FOUNTAIN,BUBBLER & TAP,-27.4308,153.032,503188,6965850,200473614
CHANDLER,MANSFIELD,D0434,BROADWATER PICNIC GROUND PARK,B-RE-1499-N003,BROADWATER PICNIC GND (PLAYGROUND) PICNIC AREA,81760,BUBBLER/DRINKING FOUNTAIN,BUBBLER 2 TAPS & DOG BOWL,-27.5443,153.111,510980,6953270,200505217
CHANDLER,MANSFIELD,D0434,BROADWATER PICNIC GROUND PARK,B-RE-1499-N007,BALANCE OF PARK,41223,BUBBLER/DRINKING FOUNTAIN,BUBBLER & TAP,-27.5435,153.113,511177,6953360,200486031
CHANDLER,MANSFIELD,D0434,BROADWATER PICNIC GROUND PARK,B-RE-1499-N007,BALANCE OF PARK,180805,BUBBLER/DRINKING FOUNTAIN,BUBBLER/DRINKING FOUNTAIN,-27.5445,153.111,510987,6953240,200560565
MACGREGOR,UPPER MOUNT GRAVATT,D0432,ABBEVILLE STREET PARK,B-RE-1500-N004,ABBEVILLE ST DOG OFF LEASH AREA,29824,BUBBLER/DRINKING FOUNTAIN,BUBBLER TAP & DOG BOWL,-27.5447,153.09,508852,6953230,200480507
MACGREGOR,UPPER MOUNT GRAVATT,D0432,ABBEVILLE STREET PARK,B-RE-1500-N004,ABBEVILLE ST DOG OFF LEASH AREA,50473,BUBBLER/DRINKING FOUNTAIN,"BUBBLER, TAP & BOWL",-27.5446,153.089,508816,6953240,100116684
MACGREGOR,UPPER MOUNT GRAVATT,D0432,ABBEVILLE STREET PARK,B-RE-1500-N009,ABBEVILLE ST COMMUNITY GARDEN,12062,BUBBLER/DRINKING FOUNTAIN,DRINKING FOUNTAIN,-27.5446,153.088,508700,6953240,200482357
WALTER TAYLOR,INDOOROOPILLY,D0430,MOORE PARK,B-RE-1501-N002,MOORE PK ACCESS & CAR PARKING,12031,BUBBLER/DRINKING FOUNTAIN,BUBBLER & 2 TAPS,-27.4986,152.965,496530,6958340,200474543
WALTER TAYLOR,INDOOROOPILLY,D0430,MOORE PARK,B-RE-1501-N002,MOORE PK ACCESS & CAR PARKING,67965,BUBBLER/DRINKING FOUNTAIN,RAILS,-27.585,153.057,505613,6948760,200489991
WALTER TAYLOR,INDOOROOPILLY,D0430,MOORE PARK,B-RE-1501-N004,BALANCE OF PARK,119718,BUBBLER/DRINKING FOUNTAIN,BUBBLER & 2 TAPS,-27.4981,152.966,496603,6958400,200525088
WALTER TAYLOR,INDOOROOPILLY,D0430,MOORE PARK,B-RE-1501-N008,GEORGE WATT OVAL (MOORE PK),119733,BUBBLER/DRINKING FOUNTAIN,BUBBLER & TAP,-27.4975,152.965,496499,6958460,200525097
WALTER TAYLOR,INDOOROOPILLY,D0429,KENNEWELL PARK,B-RE-1502-N002,KENNEWELL PK PLAYGROUND,110511,BUBBLER/DRINKING FOUNTAIN,BUBBLER & 2 TAPS,-27.5068,152.961,496121,6957430,200518918
WALTER TAYLOR,TARINGA,D0424,TARINGA PLAYGROUND PARK,B-RE-1507-N006,TARINGA PLAYGROUND PK ACTIVITY SPACE,43011,BUBBLER/DRINKING FOUNTAIN,BUBBLER & TAP,-27.491,152.98,498024,6959180,200486810
WALTER TAYLOR,INDOOROOPILLY,D0423,ESSEX ROAD PARK,B-RE-1508-N002,ESSEX RD NETBALL FACILITY,122348,BUBBLER/DRINKING FOUNTAIN,BUBBLER & 2 TAPS,-27.4996,152.982,498233,6958230,200527421
WALTER TAYLOR,INDOOROOPILLY,D0422,JACK SPEARE PARK,B-RE-1509-N002,TARINGA ROVERS SOCCER FACILITY,122474,BUBBLER/DRINKING FOUNTAIN,BUBBLER & 2 TAPS,-27.5029,152.981,498134,6957870,200527543
WALTER TAYLOR,INDOOROOPILLY,D0420,SIR JOHN CHANDLER PARK,B-RE-1511-N002,BALANCE OF PARK,119937,BUBBLER/DRINKING FOUNTAIN,2 TAPS 1 FOUNTAIN,-27.5099,152.986,498608,6957080,200525228
WALTER TAYLOR,INDOOROOPILLY,D0420,SIR JOHN CHANDLER PARK,B-RE-1511-N004,MEIERS RD (SOUTH) PLAYGROUND,5006,BUBBLER/DRINKING FOUNTAIN,BUBBLER & TAP,-27.5193,153.009,500885,6956040,200472072
WALTER TAYLOR,ST LUCIA,D0417,LEX ORD PARK,B-RE-1513-N002,BALANCE OF PARK,22306,BUBBLER/DRINKING FOUNTAIN,BUBBLER & TAP,-27.5018,152.991,499137,6957980,200478118
WALTER TAYLOR,TARINGA,D0416,ROBERTSON PARK,B-RE-1514-N005,ROBERTSON PK PATHWAY CIRCUIT,119549,BUBBLER/DRINKING FOUNTAIN,BUBBLER & 2 TAPS,-27.5028,152.99,499014,6957880,200524939
WALTER TAYLOR,TARINGA,D0416,ROBERTSON PARK,B-RE-1514-N007,ROBERTSON PK PICNIC AREA,119562,BUBBLER/DRINKING FOUNTAIN,BUBBLER & 2 TAPS,-27.5024,152.99,499029,6957920,200524952
WALTER TAYLOR,TARINGA,D0415,JACK COOK MEMORIAL PARK,B-RE-1515-N002,TOOWONG HARRIERS ATHLETIC FACILITY,22252,BUBBLER/DRINKING FOUNTAIN,BUBBLER & TAP,-27.4939,152.993,499274,6958860,200478094
HAMILTON,WINDSOR,D0505,WINDSOR PARK,B-RE-1517-N003,WINDSOR PK PICNIC AREA,40883,BUBBLER/DRINKING FOUNTAIN,BUBBLER & TAP,-27.432,153.038,503789,6965710,200485867
HAMILTON,WINDSOR,D0505,WINDSOR PARK,B-RE-1517-N008,ST MARGARET'S GIRLS SCHOOL SPORTING COMPLEX,69575,BUBBLER/DRINKING FOUNTAIN,BUBBLER & TAP,-27.431,153.036,503575,6965830,200501183
HAMILTON,WINDSOR,D0505,WINDSOR PARK,B-RE-1517-N010,WINDSOR PK PLAYGROUND,43264,BUBBLER/DRINKING FOUNTAIN,BUBBLER & TAP,-27.4323,153.037,503639,6965690,200486863
HAMILTON,WINDSOR,D0503,MANN PARK,B-RE-1519-N001,MANN PK PICNIC AREA,191700,BUBBLER/DRINKING FOUNTAIN,"BUBBLER, TAP & DOG BOWL",-27.4411,153.033,503269,6964700,200569300
HAMILTON,WINDSOR,D0502,FLYNN OVAL PARK,B-RE-1520-N003,BRYDEN STREET PICNIC AREA,108921,BUBBLER/DRINKING FOUNTAIN,BUBBLER & 2 TAPS,-27.4396,153.034,503355,6964870,200517749
MARCHANT,GRANGE,D0501,HALFORD PARK,B-RE-1521-N001,BALANCE OF PARK,47398,BUBBLER/DRINKING FOUNTAIN,BUBBLER & 2 TAPS,-27.4202,153.01,500974,6967020,200488469
MARCHANT,GRANGE,D0501,HALFORD PARK,B-RE-1521-N002,HALFORD PK PLAYGROUND,190201,BUBBLER/DRINKING FOUNTAIN,BUBBLER & 2 TAPS,-27.4195,153.009,500912,6967100,200568032
HOLLAND PARK,TARRAGINDI,D0403,MOORBELL STREET PARK,B-RE-1522-N005,MOORBELL ST PICNIC AREA,79883,BUBBLER/DRINKING FOUNTAIN,BUBBLER & 2 TAPS,-27.5336,153.052,505130,6954460,200504398
HOLLAND PARK,TARRAGINDI,D0398,SHAFTESBURY STREET PARK,B-RE-1527-N004,SHAFTESBURY ST DOG OFF LEASH AREA,82803,BUBBLER/DRINKING FOUNTAIN,BUBBLER & TAP IN SMALL DOLA,-27.5192,153.042,504103,6956050,200505845
HOLLAND PARK,TARRAGINDI,D0398,SHAFTESBURY STREET PARK,B-RE-1527-N004,SHAFTESBURY ST DOG OFF LEASH AREA,82804,BUBBLER/DRINKING FOUNTAIN,BUBBLER & TAP,-27.5197,153.042,504110,6956000,200505846
HOLLAND PARK,TARRAGINDI,D0398,SHAFTESBURY STREET PARK,B-RE-1527-N005,LAURA ST PICNIC AREA,82746,BUBBLER/DRINKING FOUNTAIN,BUBBLER & TAP,-27.5188,153.041,504036,6956100,200505798
DOBOY,CARINA,D0597,PRESTON ROAD PARK,B-RE-1530-N001,MEADOWLANDS RD PICNIC AREA (CADOGAN ST),176176,BUBBLER/DRINKING FOUNTAIN,BUBBLER & TAP,-27.4933,153.118,511659,6958920,200557955
DOBOY,CARINA,D0597,PRESTON ROAD PARK,B-RE-1530-N004,MEADOWLANDS RD DOG OFF LEASH AREA,29890,BUBBLER/DRINKING FOUNTAIN,BUBBLER 2 TAPS & DOG BOWL,-27.4932,153.118,511608,6958930,200480540
DOBOY,CARINA,D0597,PRESTON ROAD PARK,B-RE-1530-N004,MEADOWLANDS RD DOG OFF LEASH AREA,51285,BUBBLER/DRINKING FOUNTAIN,BUBBLER 2 TAPS & DOG BOWL,-27.4931,153.117,511575,6958950,100119003
DOBOY,CARINA,D0597,PRESTON ROAD PARK,B-RE-1530-N004,MEADOWLANDS RD DOG OFF LEASH AREA,161042,BUBBLER/DRINKING FOUNTAIN,BUBBLER 2 TAPS & DOG BOWL,-27.4933,153.117,511513,6958920,200548826
DOBOY,CARINA,D0597,PRESTON ROAD PARK,B-RE-1530-N007,SOUTH BRISBANE SOFTBALL ASSOCIATION FIELDS,16420,BUBBLER/DRINKING FOUNTAIN,BUBBLER & TAP,-27.4906,153.118,511676,6959220,200476073
DOBOY,CARINA,D0597,PRESTON ROAD PARK,B-RE-1530-N007,SOUTH BRISBANE SOFTBALL ASSOCIATION FIELDS,38730,BUBBLER/DRINKING FOUNTAIN,BUBBLER & 2 TAPS,-27.4914,153.118,511643,6959130,200484660
DOBOY,CARINA,D0597,PRESTON ROAD PARK,B-RE-1530-N007,SOUTH BRISBANE SOFTBALL ASSOCIATION FIELDS,162394,BUBBLER/DRINKING FOUNTAIN,BUBBLER & 2 TAPS,-27.4891,153.118,511666,6959390,200549239
DOBOY,CARINA,D0597,PRESTON ROAD PARK,B-RE-1530-N007,SOUTH BRISBANE SOFTBALL ASSOCIATION FIELDS,162401,BUBBLER/DRINKING FOUNTAIN,BUBBLER & 2 TAPS,-27.4895,153.117,511523,6959340,200549244
DOBOY,CARINA,D0597,PRESTON ROAD PARK,B-RE-1530-N007,SOUTH BRISBANE SOFTBALL ASSOCIATION FIELDS,162403,BUBBLER/DRINKING FOUNTAIN,BUBBLER & 2 TAPS,-27.4901,153.117,511508,6959270,200549246
DOBOY,CARINA,D0597,PRESTON ROAD PARK,B-RE-1530-N007,SOUTH BRISBANE SOFTBALL ASSOCIATION FIELDS,176098,BUBBLER/DRINKING FOUNTAIN,BUBBLER & 2 TAPS,-27.4912,153.117,511577,6959150,200557881
DOBOY,CARINA,D0597,PRESTON ROAD PARK,B-RE-1530-N007,SOUTH BRISBANE SOFTBALL ASSOCIATION FIELDS,176099,BUBBLER/DRINKING FOUNTAIN,BUBBLER & 2 TAPS,-27.4919,153.117,511570,6959070,200557882
DOBOY,CARINA,D0597,PRESTON ROAD PARK,B-RE-1530-N012,MEADOWLANDS RD CANOE PONTOON & PICNIC FAILITIES,43451,BUBBLER/DRINKING FOUNTAIN,BUBBLER & 2 TAPS,-27.4937,153.119,511787,6958880,200486981
DOBOY,CARINA,D0597,PRESTON ROAD PARK,B-RE-1530-N012,MEADOWLANDS RD CANOE PONTOON & PICNIC FAILITIES,181405,BUBBLER/DRINKING FOUNTAIN,DISABLED ACCESS DRINKING FOUNTAIN,-27.4936,153.119,511776,6958880,200560827
THE GAP,FERNY GROVE,D0631,KEPERRA PICNIC GROUND PARK,B-RE-1531-N005,TRAMWAY ST ACCESS & CAR PARKING,40377,BUBBLER/DRINKING FOUNTAIN,BUBBLER & TAP,-27.4095,152.937,493781,6968210,200485613
THE GAP,FERNY GROVE,D0631,KEPERRA PICNIC GROUND PARK,B-RE-1531-N006,BALANCE OF PARK,124157,BUBBLER/DRINKING FOUNTAIN,BUBBLER & TAP,-27.4126,152.942,494294,6967860,200528877
THE GAP,FERNY GROVE,D0631,KEPERRA PICNIC GROUND PARK,B-RE-1531-N009,UPPER KEDRON RD PICNIC AREA,40973,BUBBLER/DRINKING FOUNTAIN,BUBBLER,-27.412,152.942,494243,6967930,200485912
JAMBOREE,DARRA,D0705,SANANANDA STREET PARK,B-RE-1536-N001,SANANANDA ST HALF COURT,44280,BUBBLER/DRINKING FOUNTAIN,BUBBLER & TAP,-27.5734,152.943,494355,6950050,200487260
MCDOWALL,STAFFORD HEIGHTS,D0702,SEDGEMOOR STREET PARK,B-RE-1539-N002,BALANCE OF PARK,152206,BUBBLER/DRINKING FOUNTAIN,BUBBLER & TAP,-27.3988,153.006,500544,6969400,200544232
PADDINGTON,RED HILL,D0701,BRIDGE STREET PARK,B-RE-1540-N002,BRIDGE ST ACTIVITY SPACE,28769,BUBBLER/DRINKING FOUNTAIN,BUBBLER & TAP,-27.4468,153.001,500083,6964070,200480316
HAMILTON,HAMILTON,D0699,HERCULES STREET PARK,B-RE-1542-N001,BALANCE OF PARK,33252,BUBBLER/DRINKING FOUNTAIN,BUBBLER & TAP,-27.4388,153.069,506844,6964960,200481930
HAMILTON,HAMILTON,D0699,HERCULES STREET PARK,B-RE-1542-N004,HERCULES ST DOG OFF LEASH AREA,48140,BUBBLER/DRINKING FOUNTAIN,BUBBLER & DOG BOWL,-27.4391,153.07,506925,6964930,200488632
HAMILTON,HAMILTON,D0699,HERCULES STREET PARK,B-RE-1542-N005,HERCULES ST PICNIC AREA,176934,BUBBLER/DRINKING FOUNTAIN,BUBBLER & 2 TAPS,-27.4392,153.069,506863,6964910,200558502
NORTHGATE,VIRGINIA,D0696,A.R.C.HILL PARK,B-RE-1545-N007,GOSS RD PICNIC AREA,180443,BUBBLER/DRINKING FOUNTAIN,DISABLED ACCESS FOUNTAIN,-27.3855,153.056,505529,6970860,200560420
THE GABBA,WEST END,D0695,WEST END COMMUNITY PARK,B-RE-1546-N002,BALANCE OF PARK,51436,BUBBLER/DRINKING FOUNTAIN,DRINKING FOUNTAIN,-27.4798,153.012,501196,6960430,100119448
NORTHGATE,NORTHGATE,D0692,SAPSFORD STREET PARK,B-RE-1547-N001,BALANCE OF PARK,52793,BUBBLER/DRINKING FOUNTAIN,TAP & BUBBLER,-27.3933,153.065,506387,6970000,100124322
RUNCORN,SUNNYBANK HILLS,D0687,WESTAWAY PARK,B-RE-1551-N002,BALANCE OF PARK,184212,BUBBLER/DRINKING FOUNTAIN,TAP COMBINATION,-27.5905,153.053,505187,6948160,200562820
RUNCORN,SUNNYBANK HILLS,D0687,WESTAWAY PARK,B-RE-1551-N002,BALANCE OF PARK,184269,BUBBLER/DRINKING FOUNTAIN,BUBBLER & 2 TAPS,-27.5912,153.053,505185,6948080,200562877
MACGREGOR,KURABY,D0685,WALLY TATE PARK,B-RE-1553-N006,WALLY TATE PK SKATE FACILITY,28885,BUBBLER/DRINKING FOUNTAIN,BUBBLER & TAP,-27.6043,153.093,509130,6946630,200480349
MACGREGOR,KURABY,D0685,WALLY TATE PARK,B-RE-1553-N011,WALLY TATE PK DOG OFF LEASH AREA,50684,BUBBLER/DRINKING FOUNTAIN,BUBBLER & TAP,-27.6022,153.09,508902,6946860,100117786
MACGREGOR,KURABY,D0685,WALLY TATE PARK,B-RE-1553-N011,WALLY TATE PK DOG OFF LEASH AREA,81235,BUBBLER/DRINKING FOUNTAIN,BUBBLER & TAP,-27.6021,153.091,508971,6946870,100089656
MACGREGOR,KURABY,D0685,WALLY TATE PARK,B-RE-1553-N017,BESLINE ST SHARED BIKEWAY & PATH NETWORK,2877,BUBBLER/DRINKING FOUNTAIN,BUBBLER & TAP,-27.5992,153.096,509432,6947190,200471310
MCDOWALL,STAFFORD HEIGHTS,D0684,FLOCKTON STREET PARK,B-RE-1554-N002,FLOCKTON ST PLAYGROUND,152075,BUBBLER/DRINKING FOUNTAIN,BUBBLER & TAP,-27.3958,153.002,500157,6969720,200544130
THE GABBA,KANGAROO POINT,D0680,KANGAROO POINT CLIFFS PARK,B-RE-1557-N001,SCOUT PLACE LOOKOUT,39784,BUBBLER/DRINKING FOUNTAIN,BUBBLER,-27.4808,153.033,503284,6960310,200485262
THE GABBA,KANGAROO POINT,D0680,KANGAROO POINT CLIFFS PARK,B-RE-1557-N003,LOWER RIVER TERRACE PICNIC AREA,118752,BUBBLER/DRINKING FOUNTAIN,BUBBLER - APPOLLO 400,-27.4798,153.033,503285,6960430,200524375
THE GABBA,KANGAROO POINT,D0680,KANGAROO POINT CLIFFS PARK,B-RE-1557-N004,THE CLIFFS BOARWALK (CAP COOK BDGE TO MANGROVES),118709,BUBBLER/DRINKING FOUNTAIN,BUBBLER & 2 TAPS,-27.4794,153.033,503309,6960460,200524333
THE GABBA,KANGAROO POINT,D0680,KANGAROO POINT CLIFFS PARK,B-RE-1557-N008,RIVER TCE PICNIC AREA (OPP OZCARE),122394,BUBBLER/DRINKING FOUNTAIN,BUBBLER & 2 TAPS,-27.4777,153.035,503432,6960650,200527466
THE GABBA,KANGAROO POINT,D0680,KANGAROO POINT CLIFFS PARK,B-RE-1557-N010,RIVER TCE PICNIC AREA (OPP WALMSLEY ST),24695,BUBBLER/DRINKING FOUNTAIN,BUBBLER/DRINKING FOUNTAIN,-27.4813,153.033,503249,6960260,200478894
THE GABBA,KANGAROO POINT,D0680,KANGAROO POINT CLIFFS PARK,B-RE-1557-N010,RIVER TCE PICNIC AREA (OPP WALMSLEY ST),118387,BUBBLER/DRINKING FOUNTAIN,BUBBLER,-27.4817,153.033,503227,6960210,200524038
THE GABBA,KANGAROO POINT,D0680,KANGAROO POINT CLIFFS PARK,B-RE-1557-N011,THE CLIFFS WALK (MARITIME MUSEUM TO CAPT COOK BDGE),118865,BUBBLER/DRINKING FOUNTAIN,BUBBLER,-27.4823,153.03,502962,6960140,200524484
THE GABBA,KANGAROO POINT,D0680,KANGAROO POINT CLIFFS PARK,B-RE-1557-N013,KP CLIFFS LOWER PICNIC AREA,27331,BUBBLER/DRINKING FOUNTAIN,BUBBLER & 2 TAPS,-27.4788,153.034,503344,6960530,200479583
THE GABBA,KANGAROO POINT,D0680,KANGAROO POINT CLIFFS PARK,B-RE-1557-N013,KP CLIFFS LOWER PICNIC AREA,39783,BUBBLER/DRINKING FOUNTAIN,BUBBLER & 2 TAPS,-27.4792,153.033,503309,6960490,200485261
THE GABBA,KANGAROO POINT,D0680,KANGAROO POINT CLIFFS PARK,B-RE-1557-N013,KP CLIFFS LOWER PICNIC AREA,118945,BUBBLER/DRINKING FOUNTAIN,BUBBLER & 2 TAPS,-27.4787,153.034,503342,6960540,200524564
THE GABBA,KANGAROO POINT,D0680,KANGAROO POINT CLIFFS PARK,B-RE-1557-N013,KP CLIFFS LOWER PICNIC AREA,118949,BUBBLER/DRINKING FOUNTAIN,BUBBLER & 2 TAPS,-27.4786,153.034,503334,6960550,200524568
THE GABBA,KANGAROO POINT,D0680,KANGAROO POINT CLIFFS PARK,B-RE-1557-N014,RIVER TCE PICNIC AREA (OPP PATON ST),24734,BUBBLER/DRINKING FOUNTAIN,DRINKING FOUNTAIN,-27.4787,153.034,503377,6960550,200478910
THE GABBA,KANGAROO POINT,D0680,KANGAROO POINT CLIFFS PARK,B-RE-1557-N020,THE CLIFFS BOARDWALK (MANGROVES TO NAVAL STORES),2756,BUBBLER/DRINKING FOUNTAIN,ONE BUBBLER,-27.4777,153.034,503382,6960660,200471275
THE GABBA,KANGAROO POINT,D0680,KANGAROO POINT CLIFFS PARK,B-RE-1557-N020,THE CLIFFS BOARDWALK (MANGROVES TO NAVAL STORES),2757,BUBBLER/DRINKING FOUNTAIN,DRINKING FOUNTAIN,-27.4754,153.034,503395,6960910,200471276
CALAMVALE,ALGESTER,D0678,COL BENNET PARK,B-RE-1559-N003,YORELL ST PLAYGROUND,119127,BUBBLER/DRINKING FOUNTAIN,DRINKING FOUNTAIN,-27.6164,153.028,502788,6945290,200524744
PULLENVALE,BELLBOWRIE,D0675,DIOSMA STREET PARK,B-RE-1562-N002,MAZZARD ST PLAYGROUND,119894,BUBBLER/DRINKING FOUNTAIN,2 TAPS 1 FOUNTAIN,-27.5593,152.882,488374,6951610,200525186
RUNCORN,RUNCORN,D0672,WILLIAMS PARK,B-RE-1565-N002,WILLIAMS PK PICNIC AREA,124245,BUBBLER/DRINKING FOUNTAIN,BUBBLER & TAP,-27.6028,153.071,507003,6946800,200528956
THE GAP,FERNY GROVE,D0671,LECKMY STREET PARK,B-RE-1566-N002,LECKMY ST PLAYGROUND,41120,BUBBLER/DRINKING FOUNTAIN,BUBBLER & 2 TAPS,-27.3988,152.928,492881,6969390,200485980
RUNCORN,RUNCORN,D0666,DEW STREET PARK,B-RE-1570-N002,INDIANS BASEBALL CLUB FACILITIES,44462,BUBBLER/DRINKING FOUNTAIN,BUBBLER & TAP,-27.5907,153.073,507229,6948140,200527509
MACGREGOR,EIGHT MILE PLAINS,D0742,SUMMERGLEN PARK,B-RE-1572-N001,BALANCE OF PARK,161679,BUBBLER/DRINKING FOUNTAIN,BUBBLER/DRINKING FOUNTAIN,-27.5896,153.089,508824,6948250,200548979
MACGREGOR,EIGHT MILE PLAINS,D0742,SUMMERGLEN PARK,B-RE-1572-N002,SUMMERGLEN PK PLAYGROUND,170702,BUBBLER/DRINKING FOUNTAIN,BUBBLER & 2 TAPS,-27.5896,153.089,508824,6948250,200554610
BRACKEN RIDGE,CARSELDINE,D0741,CHATEAU STREET PARK,B-RE-1573-N001,CHATEAU ST PLAYGROUND,152759,BUBBLER/DRINKING FOUNTAIN,BUBBLER & TAP,-27.3467,153.008,500833,6975170,200544637
MCDOWALL,STAFFORD HEIGHTS,D0739,GREY GUM PARK,B-RE-1575-N002,BALANCE OF PARK,29002,BUBBLER/DRINKING FOUNTAIN,BUBBLER & TAP,-27.3923,153.004,500402,6970110,200480388
MCDOWALL,STAFFORD HEIGHTS,D0739,GREY GUM PARK,B-RE-1575-N003,REMICK ST DOG OFF LEASH AREA,30047,BUBBLER/DRINKING FOUNTAIN,BUBBLER & TAP,-27.3919,153.004,500412,6970150,200480586
MCDOWALL,STAFFORD HEIGHTS,D0739,GREY GUM PARK,B-RE-1575-N003,REMICK ST DOG OFF LEASH AREA,70244,BUBBLER/DRINKING FOUNTAIN,TAP & BUBBLER OUTSIDE SMALL DOLA,-27.3908,153.004,500384,6970280,200501322
MCDOWALL,STAFFORD HEIGHTS,D0739,GREY GUM PARK,B-RE-1575-N003,REMICK ST DOG OFF LEASH AREA,154868,BUBBLER/DRINKING FOUNTAIN,"BUBBLER, TAP & DOG BOWL",-27.3907,153.005,500508,6970290,200546370
BRACKEN RIDGE,CARSELDINE,D0735,PHILIP VAUGHAN PARK,B-RE-1579-N003,BALANCE OF PARK,66038,BUBBLER/DRINKING FOUNTAIN,BUBBLER & TAP,-27.3592,153.008,500826,6973780,200500180
MORNINGSIDE,MORNINGSIDE,D0732,THYNNE ROAD PARK,B-RE-1582-N001,BALANCE OF PARK,166214,BUBBLER/DRINKING FOUNTAIN,BUBBLER & TAP,-27.4692,153.07,506937,6961590,200551626
MOOROOKA,COOPERS PLAINS,D0730,BERYL ROBERTS PARK,B-RE-1584-N005,ARRUNGA ST DOG OFF LEASH AREA,50559,BUBBLER/DRINKING FOUNTAIN,BUBBLER & 2 TAPS,-27.5658,153.044,504303,6950890,200488989
MOOROOKA,COOPERS PLAINS,D0730,BERYL ROBERTS PARK,B-RE-1584-N007,BARHAM ST PICNIC AREA,36937,BUBBLER/DRINKING FOUNTAIN,BUBBLER & TAP,-27.5664,153.042,504126,6950830,200483718
HOLLAND PARK,MOUNT GRAVATT EAST,D0728,SCURR PARK,B-RE-1586-N002,SCURR PK PLAYGROUND,5627,BUBBLER/DRINKING FOUNTAIN,BUBBLER & 2 TAPS,-27.5264,153.089,508812,6955260,200472290
DEAGON,BOONDALL,D0727,FRANK SLEEMAN PARK,B-RE-1587-N002,BALANCE OF PARK,43173,BUBBLER/DRINKING FOUNTAIN,BUBBLER,-27.3611,153.059,505820,6973570,200486847
MACGREGOR,WISHART,D0725,WISHART COMMUNITY PARK,B-RE-1588-N001,MAIBRY ST PICNIC AREA,45468,BUBBLER/DRINKING FOUNTAIN,BUBBLER & 2 TAPS,-27.5605,153.103,510199,6951480,200488014
CHANDLER,CARINDALE,D0723,CARINDALE RECREATION RESERVE,B-RE-1590-N002,BULIMBA CK OUTLOOK PICNIC AREA,81722,BUBBLER/DRINKING FOUNTAIN,BUBBLER & 2 TAPS,-27.4978,153.109,510746,6958420,200505183
CHANDLER,CARINDALE,D0723,CARINDALE RECREATION RESERVE,B-RE-1590-N003,CARINDALE REC RES DOG OFF LEASH AREA,104492,BUBBLER/DRINKING FOUNTAIN,BUBBLER 2 TAPS & DOG BOWL,-27.4981,153.109,510787,6958390,200515353
CHANDLER,CARINDALE,D0723,CARINDALE RECREATION RESERVE,B-RE-1590-N005,CADOGAN ST FITNESS CIRCUIT & ACTIVITY SPACE,104466,BUBBLER/DRINKING FOUNTAIN,BUBBLER & TAP,-27.4973,153.11,510848,6958480,200515332
CHANDLER,CARINDALE,D0723,CARINDALE RECREATION RESERVE,B-RE-1590-N006,CARINDALE REC RES DISTRICT PLAYGROUND,32464,BUBBLER/DRINKING FOUNTAIN,BUBBLER & TAP,-27.4973,153.109,510766,6958480,200481711
CHANDLER,CARINDALE,D0723,CARINDALE RECREATION RESERVE,B-RE-1590-N006,CARINDALE REC RES DISTRICT PLAYGROUND,104315,BUBBLER/DRINKING FOUNTAIN,DRINKING FOUNTAIN,-27.4969,153.109,510750,6958530,200515247
CHANDLER,CARINDALE,D0723,CARINDALE RECREATION RESERVE,B-RE-1590-N007,BALANCE OF PARK,180867,BUBBLER/DRINKING FOUNTAIN,DRINKING FOUNTAIN APOLLO 400,-27.4977,153.109,510718,6958430,200560590
CHANDLER,CARINDALE,D0723,CARINDALE RECREATION RESERVE,B-RE-1590-N008,CADOGAN ST PICNIC AREA,23664,BUBBLER/DRINKING FOUNTAIN,BUBBLER & TAP,-27.5002,152.96,496095,6958160,100084211
PULLENVALE,MOUNT COOT-THA,D0647,MT COOT-THA BOTANIC GARDEN,B-RE-1597-N001,BANDSTAND & AMPHITHEATRE,2062,BUBBLER/DRINKING FOUNTAIN,BUBBLER,-27.4772,152.976,497633,6960710,200471033
PULLENVALE,MOUNT COOT-THA,D0647,MT COOT-THA BOTANIC GARDEN,B-RE-1597-N001,BANDSTAND & AMPHITHEATRE,139386,BUBBLER/DRINKING FOUNTAIN,BUBBLER,-27.4779,152.976,497631,6960630,200537424
PULLENVALE,MOUNT COOT-THA,D0647,MT COOT-THA BOTANIC GARDEN,B-RE-1597-N009,BALANCE OF PARK,2066,BUBBLER/DRINKING FOUNTAIN,DRINKING FOUNTAIN,-27.4773,152.973,497341,6960700,200471037
PULLENVALE,MOUNT COOT-THA,D0647,MT COOT-THA BOTANIC GARDEN,B-RE-1597-N009,BALANCE OF PARK,24781,BUBBLER/DRINKING FOUNTAIN,DRINKING FOUNTAIN,-27.4778,152.974,497472,6960640,200478928
PULLENVALE,MOUNT COOT-THA,D0647,MT COOT-THA BOTANIC GARDEN,B-RE-1597-N009,BALANCE OF PARK,45150,BUBBLER/DRINKING FOUNTAIN,BUBBLER & TAP,-27.4754,152.979,497908,6960910,200487816
PULLENVALE,MOUNT COOT-THA,D0647,MT COOT-THA BOTANIC GARDEN,B-RE-1597-N009,BALANCE OF PARK,138899,BUBBLER/DRINKING FOUNTAIN,BUBBLER,-27.4772,152.977,497696,6960710,200537277
PULLENVALE,MOUNT COOT-THA,D0647,MT COOT-THA BOTANIC GARDEN,B-RE-1597-N009,BALANCE OF PARK,146871,BUBBLER/DRINKING FOUNTAIN,BUBBLER & TAP,-27.4763,152.974,497386,6960810,200541442
PULLENVALE,MOUNT COOT-THA,D0647,MT COOT-THA BOTANIC GARDEN,B-RE-1597-N014,AMERICAN REGION PLANTS,140415,BUBBLER/DRINKING FOUNTAIN,BUBBLER & TAP,-27.4776,152.974,497442,6960660,200537570
PULLENVALE,MOUNT COOT-THA,D0647,MT COOT-THA BOTANIC GARDEN,B-RE-1597-N014,AMERICAN REGION PLANTS,146231,BUBBLER/DRINKING FOUNTAIN,BUBBLER & TAP,-27.4785,152.975,497522,6960560,200541334
PULLENVALE,MOUNT COOT-THA,D0647,MT COOT-THA BOTANIC GARDEN,B-RE-1597-N017,KITCHEN IN GARDEN & FRUIT TREE ORCHARD,100123855,BUBBLER/DRINKING FOUNTAIN,WHEELCHAIR ACCESSIBLE DRINKING FOUNTAIN,-27.4766,152.979,497952,6960770,100123855
PULLENVALE,MOUNT COOT-THA,D0647,MT COOT-THA BOTANIC GARDEN,B-RE-1597-N018,AUSTRALIAN PLANT COMMUNITIES,157661,BUBBLER/DRINKING FOUNTAIN,BUBBLER & TAP,-27.4793,152.972,497262,6960480,200548637
PULLENVALE,MOUNT COOT-THA,D0647,MT COOT-THA BOTANIC GARDEN,B-RE-1597-N023,ARID REGION PLANTS,2065,BUBBLER/DRINKING FOUNTAIN,BUBBLER - DISABLED ACCESS,-27.4767,152.978,497851,6960760,200471036
PULLENVALE,MOUNT COOT-THA,D0647,MT COOT-THA BOTANIC GARDEN,B-RE-1597-N023,ARID REGION PLANTS,45051,BUBBLER/DRINKING FOUNTAIN,BUBBLER & TAP,-27.4759,152.978,497818,6960850,200487749
PULLENVALE,MOUNT COOT-THA,D0647,MT COOT-THA BOTANIC GARDEN,B-RE-1597-N023,ARID REGION PLANTS,45125,BUBBLER/DRINKING FOUNTAIN,BUBBLER & TAP,-27.4763,152.978,497843,6960810,200487801
PULLENVALE,MOUNT COOT-THA,D0647,MT COOT-THA BOTANIC GARDEN,B-RE-1597-N023,ARID REGION PLANTS,137702,BUBBLER/DRINKING FOUNTAIN,BUBBLER,-27.476,152.978,497857,6960850,200537013
PULLENVALE,MOUNT COOT-THA,D0647,MT COOT-THA BOTANIC GARDEN,B-RE-1597-N025,JAPANESE GARDEN,139363,BUBBLER/DRINKING FOUNTAIN,BUBBLER,-27.4773,152.977,497759,6960700,200537407
PULLENVALE,MOUNT COOT-THA,D0647,MT COOT-THA BOTANIC GARDEN,B-RE-1597-N026,FRAGRANT PLANTS,2063,BUBBLER/DRINKING FOUNTAIN,BUBBLER,-27.476,152.977,497686,6960840,200471034
PULLENVALE,MOUNT COOT-THA,D0647,MT COOT-THA BOTANIC GARDEN,B-RE-1597-N026,FRAGRANT PLANTS,137485,BUBBLER/DRINKING FOUNTAIN,BUBBLER,-27.4761,152.978,497798,6960830,200536973
PULLENVALE,MOUNT COOT-THA,D0647,MT COOT-THA BOTANIC GARDEN,B-RE-1597-N028,AUSTRALIAN RAINFOREST (MT COOT-THA RD),136841,BUBBLER/DRINKING FOUNTAIN,BUBBLER & TAP,-27.4751,152.976,497655,6960940,200536793
PULLENVALE,MOUNT COOT-THA,D0647,MT COOT-THA BOTANIC GARDEN,B-RE-1597-N028,AUSTRALIAN RAINFOREST (MT COOT-THA RD),147534,BUBBLER/DRINKING FOUNTAIN,BUBBLER & TAP,-27.4744,152.976,497652,6961010,200541597
PULLENVALE,MOUNT COOT-THA,D0647,MT COOT-THA BOTANIC GARDEN,B-RE-1597-N030,WESTERN LAKE & WETLANDS,158603,BUBBLER/DRINKING FOUNTAIN,BUBBLER & 2 TAPS,-27.4804,152.97,497049,6960360,200548692
PULLENVALE,MOUNT COOT-THA,D0647,MT COOT-THA BOTANIC GARDEN,B-RE-1597-N031,FLOWERING TREES & SHRUBS,2064,BUBBLER/DRINKING FOUNTAIN,BUBBLER,-27.4766,152.977,497700,6960780,200471035
PULLENVALE,MOUNT COOT-THA,D0647,MT COOT-THA BOTANIC GARDEN,B-RE-1597-N031,FLOWERING TREES & SHRUBS,139319,BUBBLER/DRINKING FOUNTAIN,BUBBLER,-27.4768,152.976,497616,6960750,200537391
PULLENVALE,MOUNT COOT-THA,D0647,MT COOT-THA BOTANIC GARDEN,B-RE-1597-N032,AUSTRALIAN FOREST COMMUNITIES,157667,BUBBLER/DRINKING FOUNTAIN,BUBBLER & TAP,-27.478,152.972,497236,6960620,200548640
PULLENVALE,MOUNT COOT-THA,D0647,MT COOT-THA BOTANIC GARDEN,B-RE-1597-N032,AUSTRALIAN FOREST COMMUNITIES,157977,BUBBLER/DRINKING FOUNTAIN,BUBBLER & TAP,-27.4794,152.971,497163,6960460,200548655
PULLENVALE,MOUNT COOT-THA,D0647,MT COOT-THA BOTANIC GARDEN,B-RE-1597-N032,AUSTRALIAN FOREST COMMUNITIES,158226,BUBBLER/DRINKING FOUNTAIN,BUBBLER & TAP,-27.4785,152.971,497184,6960560,200548658
PULLENVALE,MOUNT COOT-THA,D0647,MT COOT-THA BOTANIC GARDEN,B-RE-1597-N032,AUSTRALIAN FOREST COMMUNITIES,158606,BUBBLER/DRINKING FOUNTAIN,BUBBLER & TAP,-27.48,152.97,497064,6960400,200548695
PULLENVALE,MOUNT COOT-THA,D0647,MT COOT-THA BOTANIC GARDEN,B-RE-1597-N032,AUSTRALIAN FOREST COMMUNITIES,158828,BUBBLER/DRINKING FOUNTAIN,BUBBLER & TAP,-27.4792,152.97,497011,6960480,200548704
PULLENVALE,MOUNT COOT-THA,D0647,MT COOT-THA BOTANIC GARDEN,B-RE-1597-N032,AUSTRALIAN FOREST COMMUNITIES,160307,BUBBLER/DRINKING FOUNTAIN,BUBBLER & TAP,-27.4793,152.971,497128,6960480,200548750
PULLENVALE,MOUNT COOT-THA,D0647,MT COOT-THA BOTANIC GARDEN,B-RE-1597-N039,SIR THOMAS BRISBANE PLANETARIUM,137106,BUBBLER/DRINKING FOUNTAIN,BUBBLER,-27.4755,152.977,497705,6960890,200536897
PULLENVALE,MOUNT COOT-THA,D0647,MT COOT-THA BOTANIC GARDEN,B-RE-1597-N042,DEMONSTRATION GARDEN,138073,BUBBLER/DRINKING FOUNTAIN,BUBBLER,-27.4767,152.979,497914,6960760,200537082
PULLENVALE,MOUNT COOT-THA,D0647,MT COOT-THA BOTANIC GARDEN,B-RE-1597-N046,KUTA KIDS PLAYGROUND MT COOT-THA BOT GDNS,100121149,BUBBLER/DRINKING FOUNTAIN,WHEELCHAIR ACCESSIBLE DRINKING FOUNTAIN,-27.4773,152.98,497979,6960700,100121149
PULLENVALE,MOUNT COOT-THA,D0647,MT COOT-THA BOTANIC GARDEN,B-RE-1597-N046,KUTA KIDS PLAYGROUND MT COOT-THA BOT GDNS,100121344,BUBBLER/DRINKING FOUNTAIN,WATER TAP AND BUBBLER,-27.4773,152.98,497985,6960700,100121344
PULLENVALE,MOUNT COOT-THA,D0647,MT COOT-THA BOTANIC GARDEN,B-RE-1597-N048,ROSS MCKINNON LAGOON & CIRCUIT PATH,100123094,BUBBLER/DRINKING FOUNTAIN,WATER TAP AND BUBBLER,-27.4776,152.979,497926,6960670,100123094
PULLENVALE,MOUNT COOT-THA,D0647,MT COOT-THA BOTANIC GARDEN,B-RE-1597-N048,ROSS MCKINNON LAGOON & CIRCUIT PATH,100123346,BUBBLER/DRINKING FOUNTAIN,WATER TAP AND BUBBLER,-27.4772,152.98,498019,6960710,100123346
PULLENVALE,MOUNT COOT-THA,D0647,MT COOT-THA BOTANIC GARDEN,B-RE-1597-N048,ROSS MCKINNON LAGOON & CIRCUIT PATH,100123567,BUBBLER/DRINKING FOUNTAIN,WATER TAP AND BUBBLER,-27.4768,152.98,498056,6960760,100123567
PULLENVALE,MOUNT COOT-THA,D0647,MT COOT-THA BOTANIC GARDEN,B-RE-1597-N049,LEGACY WAY CONSERVATION WALK & EVENTS SPACE,166925,BUBBLER/DRINKING FOUNTAIN,WHEELCHAIR ACCESSIBLE DRINKING FOUNTAIN,-27.4781,152.976,497647,6960600,100133058
